Store_Name,Longitude,Latitude,Address,Address Line #2,City,State,Zip5,Zip4,County,
"Jeremy Grocery Deli Corp",-73.897881,40.941364,"179 Warburton Ave","","Yonkers","NY","10701","2508","WESTCHESTER" 
"FIRST ON FIRST DELI",-73.946922,40.780182,"1756 1st Ave","","New York","NY","10128","5274","NEW YORK" 
"1976 J J DELI GROCERY CORP",-73.893051,40.846821,"1976 Arthur Ave","","Bronx","NY","10457","4702","BRONX" 
"H&J Vegetable & Grocery Inc.",-73.801773,40.762486,"3601 164th St","","Flushing","NY","11358","2003","QUEENS" 
"Mr. Moe's Deli And Pizza",-77.650429,43.193897,"758 Ridgeway Ave","","Rochester","NY","14615","3250","MONROE" 
"Crystal Grocery Ltd",-73.770615,41.025787,"14 E Post Rd","","White Plains","NY","10601","4604","WESTCHESTER" 
"East New York Grocery & Deli",-73.904411,40.675289,"1737 E New York Ave","","Brooklyn","NY","11212","8020","KINGS" 
"Watkins Products Distributors LLC",-73.94397,40.807125,"46 W 125th St","","New York","NY","10027","4502","NEW YORK" 
"Harlem Naturally Inc",-73.957603,40.801418,"2053 Frederick Douglas Blvd","","New York","NY","10026","7902","NEW YORK" 
"Walden Convenient Store",-78.813942,42.904812,"599 Walden Ave","","Buffalo","NY","14211","2421","ERIE" 
"Price Chopper 207",-75.318527,43.08485,"4535 Commercial Dr","","New Hartford","NY","13413","6208","ONEIDA" 
"Jefferson Grocery",-77.629028,43.14463,"515 Jefferson Ave","","Rochester","NY","14611","3443","MONROE" 
"DOLLAR GENERAL 8427",-78.889893,42.915253,"315 W Ferry St","","Buffalo","NY","14213","1911","ERIE" 
"DOLLAR GENERAL 8373",-74.857582,43.043163,"522 Albany St","","Little Falls","NY","13365","1439","HERKIMER" 
"DOLLAR GENERAL 8443",-76.125664,43.569717,"4913 N Jefferson St","","Pulaski","NY","13142","4112","OSWEGO" 
"DOLLAR GENERAL 8440",-77.222565,43.062775,"604 E Main St","","Palmyra","NY","14522","1134","WAYNE" 
"DOLLAR GENERAL 8417",-79.040054,43.095158,"1802 Pine Ave","City Mkt Plz","Niagara Falls","NY","14301","2234","NIAGARA" 
"DOLLAR GENERAL 8488",-78.879272,43.020706,"29 Niagara St","Eckerd Plz","Tonawanda","NY","14150","","ERIE" 
"DOLLAR GENERAL 8493",-75.298439,43.076893,"1 New Hartford Shopping Ctr","F-4","New Hartford","NY","13413","2816","ONEIDA" 
"Lucky 7 Fish Market",-73.894676,40.846527,"563A E Tremont Ave","","Bronx","NY","10457","4601","BRONX" 
"Dahing Seafood Market Inc",-73.996941,40.718197,"127 Mott St","","New York","NY","10013","5512","NEW YORK" 
"DOLLAR GENERAL 8559",-75.446953,43.219818,"810 Black River Blvd N","Black River Blvd Shop Center","Rome","NY","13440","","ONEIDA" 
"Central Yetev Lev D'Satmar Meat Inc",-73.95636,40.694511,"684 Myrtle Ave","","Brooklyn","NY","11205","3915","KINGS" 
"STEWARTS SHOP 388",-76.523537,43.449711,"196 W Utica St","","Oswego","NY","13126","1948","OSWEGO" 
"NORTHERN CAKES",-73.505295,44.676384,"1290 Military Tpke","","Plattsburgh","NY","12901","7442","CLINTON" 
"DOLLAR GENERAL 9098",-74.985062,43.025684,"110 E State St","","Herkimer","NY","13350","2301","HERKIMER" 
"Valero Food Mart",-75.915993,43.97636,"262 Arsenal St","","Watertown","NY","13601","2504","JEFFERSON" 
"DOLLAR GENERAL 9488",-79.245171,42.105404,"1356 Washington St","","Jamestown","NY","14701","","CHAUTAUQUA" 
"DOLLAR GENERAL 8596",-76.416504,43.324192,"126 Cayuga St","","Fulton","NY","13069","1741","OSWEGO" 
"DOLLAR GENERAL 9030",-76.142044,42.978951,"6320 S Salina St","","Nedrow","NY","13120","1023","ONONDAGA" 
"DOLLAR GENERAL 6050",-78.572937,43.195477,"8405 Rochester Rd","","Gasport","NY","14067","9211","NIAGARA" 
"Dollar General 6065",-76.529343,42.00182,"575 Broad St","","Waverly","NY","14892","1504","TIOGA" 
"DOLLAR GENERAL 6067",-78.015411,42.209892,"4836 State Route 19 S","","Belmont","NY","14813","9506","ALLEGANY" 
"DOLLAR GENERAL 6294",-76.053726,42.098812,"225 Harrison Ave","","Endicott","NY","13760","5146","BROOME" 
"Dollar General 6337",-76.588425,42.920795,"343 W Genesee St","","Auburn","NY","13021","3157","CAYUGA" 
"DOLLAR GENERAL 6429",-76.82151,42.680756,"2173 State Route 96a","","Ovid","NY","14521","9707","SENECA" 
"DOLLAR  GENERAL 6014",-74.46315,44.227192,"14 Demars Blvd","","Tupper Lake","NY","12986","1461","FRANKLIN" 
"Fatima Grocery",-73.921425,40.650608,"5914 Snyder Ave","","Brooklyn","NY","11203","4818","KINGS" 
"Potomac Express Deli",-78.892494,42.923996,"188 Potomac Ave","","Buffalo","NY","14213","1151","ERIE" 
"Walmart Super Center 2210",-78.811607,42.980255,"3290 Sheridan Dr","","Buffalo","NY","14226","1422","ERIE" 
"Walmart SuperCenter 1997",-73.761566,42.74675,"800 Loudon Rd","","Latham","NY","12110","","ALBANY" 
"Walmart Supercenter 1744",-77.498802,43.193645,"1990 Brandt Point Dr","","Penfield","NY","14580","1959","MONROE" 
"Walmart SuperCenter 1806",-74.337112,43.07024,"329 S Kingsboro Ave","","Gloversville","NY","12078","4620","FULTON" 
"Walmart 2370",-73.640274,42.74649,"760 Hoosick Rd","","Troy","NY","12180","6627","RENSSELAER" 
"Dollar General 6107",-78.004105,42.978989,"3 West Ave","","Leroy","NY","14482","","GENESEE" 
"DOLLAR GENERAL 6386",-77.937569,43.218498,"50 N Main St","","Brockport","NY","14420","1906","MONROE" 
"DOLLAR GENERAL 8576",-73.901001,42.906948,"772 State Route 50","Route 50","Burnt Hills","NY","12027","9583","SARATOGA" 
"DOLLAR GENERAL 8895",-73.929451,42.802811,"1008 State St","","Schenectady","NY","12307","1508","SCHENECTADY" 
"DOLLAR GENERAL 6184",-73.265892,43.398605,"87 Quaker St","Granville Mall","Granville","NY","12832","1500","WASHINGTON" 
"DOLLAR GENERAL 9556",-73.577072,43.314232,"343 Main St","","Hudson Falls","NY","12839","1513","WASHINGTON" 
"DOLLAR GENERAL 6172",-76.500832,42.212334,"79 Orchard St","","Spencer","NY","14883","9696","TIOGA" 
"DOLLAR GENERAL 6436",-75.96843,42.328953,"2649 Main St","","Whitney Point","NY","13862","","BROOME" 
"Unity African Market",-73.912643,40.84481,"60 E 174th St","","Bronx","NY","10452","5809","BRONX" 
"DOLLAR GENERAL 6469",-75.293465,43.120071,"131 Oriskany Blvd","Ste 7","Whitesboro","NY","13492","1319","ONEIDA" 
"Dollar General 8623",-74.555206,42.91737,"48 Dutch Town Plz","","Palatine Bridge","NY","13428","9800","MONTGOMERY" 
"DOLLAR GENERAL 9357",-74.197861,42.943745,"140 Guy Park Ave","","Amsterdam","NY","12010","3206","MONTGOMERY" 
"DOLLAR GENERAL 9086",-75.708687,44.146942,"2 S Main St","","Philadelphia","NY","13673","9998","JEFFERSON" 
"DOLLAR GENERAL 9559",-74.877052,44.927387,"2 Malby Ave","","Massena","NY","13662","2323","ST LAWRENCE" 
"Dollar General 9582",-75.145363,44.598305,"5933 Route 11","","Canton","NY","13617","","ST LAWRENCE" 
"DOLLAR GENERAL 6066",-74.899666,44.943104,"232 N Main St","","Massena","NY","13662","1122","ST LAWRENCE" 
"DOLLAR GENERAL 9782",-75.836617,44.047344,"26221 US Route 11","","Evans Mills","NY","13637","3224","JEFFERSON" 
"DOLLAR GENERAL 9763",-75.747803,43.333759,"35 Main St","","Camden","NY","13316","1301","ONEIDA" 
"DOLLAR GENERAL 9112",-75.538948,43.079235,"4464 Peterboro St","","Vernon","NY","13476","","ONEIDA" 
"DOLLAR GENERAL 9723",-75.659607,43.103058,"431 N Main St","Oneida Shopping Center","Oneida","NY","13421","","MADISON" 
"DOLLAR GENERAL 8656",-75.752228,43.071041,"423 South Peterboro St","","Canastota","NY","13032","1431","MADISON" 
"Dollar General 8840",-75.97422,43.154919,"7999 State Route 31","","Bridgeport","NY","13030","8415","ONONDAGA" 
"DOLLAR GENERAL 6029",-76.012077,43.251839,"1573 State Route 49","","Constantia","NY","13044","2601","OSWEGO" 
"DOLLAR GENERAL 8104",-78.429893,42.085381,"502 N Union St","","Olean","NY","14760","","CATTARAUGUS" 
"DOLLAR GENERAL 6125",-76.814964,43.219341,"6010 New Hartford St","","Wolcott","NY","14590","1143","WAYNE" 
"DOLLAR GENERAL 6365",-76.186478,42.612812,"186 Homer Ave","Homer Ave Plaza","Cortland","NY","13045","1029","CORTLAND" 
"DOLLAR GENERAL 8333",-78.664703,43.153141,"1201 Lincoln Ave","Lincoln Square Plaza","Lockport","NY","14094","6209","NIAGARA" 
"STOP & SHOP SUPER CENTER 539",-73.862389,40.702713,"8889 Union Tpke","","Glendale","NY","11385","","QUEENS" 
"DOLLAR GENERAL 9742",-77.741531,43.030933,"3892 Scottsville Rd","Scottsville Plaza","Scottsville","NY","14546","1151","MONROE" 
"DOLLAR GENERAL 6714",-75.728035,43.205456,"1804 Main St","","Sylvan Beach","NY","13157","5781","ONEIDA" 
"DOLLAR GENERAL 6175",-78.338135,42.028236,"169 S Main St","","Portville","NY","14770","","CATTARAUGUS" 
"DOLLAR GENERAL 9394",-79.491257,42.234936,"199 W Lake Rd","","Mayville","NY","14757","9693","CHAUTAUQUA" 
"DOLLAR GENERAL 6270",-73.970535,42.834026,"154 Sacandaga Rd","Scotia Village Plaza","Scotia","NY","12302","1537","SCHENECTADY" 
"Dollar General 6160",-77.875832,42.833202,"3681 Retsof Rd","","Retsof","NY","14539","9800","LIVINGSTON" 
"DOLLAR GENERAL 9531",-74.39595,41.716427,"114 S Main St","","Ellenville","NY","12428","2116","ULSTER" 
"DOLLAR GENERAL 6514",-73.985558,42.077641,"3139 Rte 9 West","","Saugerties","NY","12477","","ULSTER" 
"DOLLAR GENERAL 8749",-73.965271,42.797848,"2009 Broadway","Ste 3","Schenectady","NY","12306","4123","SCHENECTADY" 
"DOLLAR GENERAL 6351",-74.012695,41.06411,"118 N Middletown Rd","","Pearl River","NY","10965","2017","ROCKLAND" 
"Dollar General 6079",-79.552917,42.336437,"7612 E Route 20","","Westfield","NY","14787","9663","CHAUTAUQUA" 
"DOLLAR GENERAL 6375",-76.022095,43.823956,"10757 US Route 11","","Adams","NY","13605","2113","JEFFERSON" 
"DOLLAR GENERAL 6724",-78.97245,42.162853,"61 Main St","","Randolph","NY","14772","1124","CATTARAUGUS" 
"DOLLAR GENERAL 6872",-73.81971,43.245667,"417 Palmer Ave","","Corinth","NY","12822","1217","SARATOGA" 
"DOLLAR GENERAL 6383",-78.646492,42.249863,"5785 US Rte 219","","Great Valley","NY","14741","","CATTARAUGUS" 
"DOLLAR GENERAL 6217",-77.699165,42.56031,"27 Ossian St","","Dansville","NY","14437","1023","LIVINGSTON" 
"DOLLAR GENERAL 9951",-75.889099,42.104206,"357 Court St","","Binghamton","NY","13904","1536","BROOME" 
"DOLLAR GENERAL 6849",-79.254189,42.094185,"601 W 3rd St","","Jamestown","NY","14701","4704","CHAUTAUQUA" 
"DOLLAR GENERAL 6404",-76.121635,42.795292,"495 SR 281","","Tully","NY","13159","","ONONDAGA" 
"Dollar General 6295",-74.713463,41.781487,"1860 State Route 52","","Liberty","NY","12754","8307","SULLIVAN" 
"DOLLAR GENERAL 6540",-73.826866,42.349358,"11776 Rte 9 West","","West Coxsackie","NY","12051","","GREENE" 
"DOLLAR GENERAL 6456",-77.880226,42.736069,"116 N Main St","","Mount Morris","NY","14510","1517","LIVINGSTON" 
"DOLLAR GENERAL 11284",-78.275528,42.236019,"5240 Route 305","","Cuba","NY","14727","9208","ALLEGANY" 
"DOLLAR GENERAL 9576",-76.286652,43.12133,"7252 State Fair Blvd","","Syracuse","NY","13209","1867","ONONDAGA" 
"386 Fulton Fish Corp",-73.619728,40.709408,"386B Fulton Ave","","Hempstead","NY","11550","","NASSAU" 
"Sammy Deli Grocery",-73.963753,40.797897,"901 Columbus Ave","","New York","NY","10025","4041","NEW YORK" 
"Rite Aid 4716",-76.508041,42.43325,"615 S Meadow St","","Ithaca","NY","14850","5358","TOMPKINS" 
"Rite Aid 623",-77.665009,43.204956,"1436 Ridge Rd W","","Rochester","NY","14615","2411","MONROE" 
"Rite Aid 4967",-76.813995,43.207954,"5651 Whiskey Hill Rd","","Wolcott","NY","14590","9379","WAYNE" 
"J. A. S. Grocery",-73.866745,40.831734,"1792 Westchester Ave","","Bronx","NY","10472","3020","BRONX" 
"Aguilar Deli & Grocery Corp",-73.894089,40.929108,"39 Park Hill Ave","","Yonkers","NY","10701","","WESTCHESTER" 
"CLINTON DELI & GROCERY",-73.764053,42.662434,"413 Clinton Ave","","Albany","NY","12206","3102","ALBANY" 
"MARTIN'S COUNTRY STORE",-74.560371,44.824154,"691 County Route 6","","Moira","NY","12957","2207","FRANKLIN" 
"Biponon Corp/Haat Bazaar",-73.892609,40.748447,"3711 73rd St","","Jackson Heights","NY","11372","6248","QUEENS" 
"NICE N EASY",-75.391685,43.891373,"9741 State Route 812","","Croghan","NY","13327","","LEWIS" 
"HARRISVILLE CONVENIENCE LLC",-75.31234,44.163311,"ROUTE 812 & 3","","HARRISVILLE","NY","13648","","LEWIS" 
"G. H. Food Inc",-73.952339,40.726654,"750A Manhattan Ave","","Brooklyn","NY","11222","2910","KINGS" 
"F & F New Rochelle Food Corp/C-Town",-73.782837,40.908028,"538 Main St","","New Rochelle","NY","10801","7215","WESTCHESTER" 
"Eko African Store",-73.862183,40.88446,"3832 White Plains Rd","","Bronx","NY","10467","5320","BRONX" 
"Tribuzio Meat Market Inc",-73.997536,40.611923,"7714 18th Ave","","Brooklyn","NY","11214","1110","KINGS" 
"KEESEVILLE MOBIL",-73.480293,44.504356,"1736 Front St","","Keeseville","NY","12944","3618","CLINTON" 
"Jin Sun Produce Corp",-73.904488,40.879303,"5590 Broadway","","Bronx","NY","10463","5519","BRONX" 
"J & J Hooper Food Corp",-73.95211,40.710033,"396 Hooper St","","Brooklyn","NY","11211","5803","KINGS" 
"Benz's Food Products Inc",-73.939537,40.668545,"332 Albany Ave","","Brooklyn","NY","11213","4429","KINGS" 
"JLT 156 Food Corp/Bravo Supermarket",-73.924767,40.841396,"156 W 170th St","","Bronx","NY","10452","2557","BRONX" 
"Nube De Jesus Grocery # 2",-73.916595,40.749107,"3902 47th Ave","","Sunnyside","NY","11104","4408","QUEENS" 
"Phil's Meat & Grocery Inc",-73.835907,40.90844,"118 S 4th Ave","","Mount Vernon","NY","10550","3107","WESTCHESTER" 
"Walmart 5240",-76.507919,42.42939,"744 S Meadow St","","Ithaca","NY","14850","5390","TOMPKINS" 
"Walmart 3420",-73.600822,40.745605,"1220 Old Country Rd","","Westbury","NY","11590","5624","NASSAU" 
"MK HANDI STOP/MANJU ENTERPRISES CORP",-74.441483,41.426498,"295 Wawayanda Ave","","Middletown","NY","10940","6830","ORANGE" 
"840 St Nicholas Food Corp",-73.942154,40.828747,"840 Saint Nicholas Ave","","New York","NY","10031","1123","NEW YORK" 
"JANDY CLOTHINGS & ACCESSORIES",-76.17321,43.037766,"1017 S Geddes St","","Syracuse","NY","13204","3827","ONONDAGA" 
"Tefanny Deli & Grocery",-73.958366,40.696426,"83 Franklin Ave","","Brooklyn","NY","11205","2708","KINGS" 
"Young's West Indian Fruits & Vegetables Market",-73.775497,40.673092,"13410 Guy r Brewer Blvd","","Jamaica","NY","11434","3728","QUEENS" 
"HUNG KEE FOOD MARKET INC",-73.999069,40.717289,"214 Canal St","","New York","NY","10013","4121","NEW YORK" 
"Island Grocery of S.I. Inc",-74.129807,40.612492,"1980 Victory Blvd","","Staten Island","NY","10314","3554","RICHMOND" 
"CROWN POINT CITGO",-73.430923,43.951153,"2777 Main St","","Crown Point","NY","12928","2607","ESSEX" 
"TOPS 369",-76.12043,43.073547,"181 Shop City Plz","","Syracuse","NY","13206","1943","ONONDAGA" 
"TOPS 362",-76.108696,43.021305,"620 Nottingham Rd","","Syracuse","NY","13224","2234","ONONDAGA" 
"ROYAL SUPERMARKET",-73.982048,40.662312,"1419 8th Ave","","BROOKLYN","NY","11215","","KINGS" 
"La Esperanza Deli Inc",-73.620819,40.716839,"363 Clinton St","","Hempstead","NY","11550","1731","NASSAU" 
"Nasser Candy & Luncheonette",-73.979782,40.645031,"369 McDonald Ave","","Brooklyn","NY","11218","2211","KINGS" 
"Salahi Deli And Grocery",-73.966301,40.640347,"1224 Cortelyou Rd","","Brooklyn","NY","11218","5404","KINGS" 
"STAFFORD CONVENIENCE STORE",-76.11216,43.061737,"372 Stafford Ave","","Syracuse","NY","13206","3313","ONONDAGA" 
"K & K 8 Ave Inc",-73.99852,40.648067,"735 39th St","","Brooklyn","NY","11232","3209","KINGS" 
"ALI BABA'S INDIAN SPICES",-73.817436,42.702614,"10 Fuller Rd","","Albany","NY","12205","5104","ALBANY" 
"STEWARTS SHOP 186",-73.734726,42.677704,"20 Broadway","","Menands","NY","12204","2724","ALBANY" 
"M & S Food Corp",-73.939598,40.821175,"2482 Adam Clayton Powell Jr Blvd","","New York","NY","10030","1332","NEW YORK" 
"Ginseng Wild Trading Inc",-73.829315,40.757797,"4114A Main St","","Flushing","NY","11355","3133","QUEENS" 
"SJC Deli Food Corp",-73.880463,40.759872,"8821 31st Ave","","East Elmhurst","NY","11369","1437","QUEENS" 
"SHAM CANDY & GROCERY",-73.767212,42.660233,"123 Central Ave","","Albany","NY","12206","2902","ALBANY" 
"E 240 Halal Live Poultry Corp",-73.851082,40.901855,"711 E 240th St","","Bronx","NY","10470","1621","BRONX" 
"Friendly Mini Mart Inc",-77.598404,43.142006,"809 Clinton Ave S","","Rochester","NY","14620","1403","MONROE" 
"Marien Grocery Corp.",-73.896385,40.678684,"99 Jamaica Ave","","Brooklyn","NY","11207","2015","KINGS" 
"544 Throop Avenue Food Market Inc",-73.941399,40.685013,"544 Throop Ave","","Brooklyn","NY","11221","","KINGS" 
"GARDEN MINI DELI, INC",-73.923248,41.711658,"163 Garden St","","Poughkeepsie","NY","12601","1933","DUTCHESS" 
"Gutierrez Mini Market",-73.884514,40.680038,"2983 Fulton St","","Brooklyn","NY","11208","1123","KINGS" 
"Juncalito Meat & Produce Inc",-73.937904,40.8009,"2212 3rd Ave","","New York","NY","10035","3530","NEW YORK" 
"CITGO JOLLY ROGER",-78.93998,43.071106,"2065 River Rd","","Niagara Falls","NY","14304","3714","NIAGARA" 
"ASKERS FOOD MARKET # 2",-77.639435,43.176201,"620 Dewey Ave","","Rochester","NY","14613","2343","MONROE" 
"Steve Mexican Grocery Inc",-73.915665,40.705524,"423 Stanhope St","","Brooklyn","NY","11237","4440","KINGS" 
"COUNTRY CONVENIENCE",-75.250404,42.871613,"373 NYS Route 8","","BRIDGEWATER","NY","13313","","ONEIDA" 
"La Placita Market Corp",-73.917854,41.290794,"1049 Park St","","Peekskill","NY","10566","3803","WESTCHESTER" 
"Tepeojuma Deli Grocery",-73.919044,40.704227,"123B Wyckoff Ave","","Brooklyn","NY","11237","3903","KINGS" 
"S&J&I CORP",-78.817825,42.861515,"1770 Seneca St","","Buffalo","NY","14210","1829","ERIE" 
"Super H Mart Inc",-73.655815,40.7537,"400 Hillside Ave","","Williston Park","NY","11596","2109","NASSAU" 
"DERBY DELI INC",-78.985199,42.698933,"6901 Erie Rd","","Derby","NY","14047","9108","ERIE" 
"M & N Deli Grocery Inc",-73.846176,40.689018,"96-27 Atlantic Ave","","Woodhaven","NY","11421","","QUEENS" 
"New Amin Grocery & Halal Meat Inc",-73.830833,40.684887,"11107 Liberty Ave","","Richmond Hill","NY","11419","1847","QUEENS" 
"D & A 724 Food Corp",-73.886246,40.815022,"724 Hunts Point Ave","","Bronx","NY","10474","5921","BRONX" 
"RISE & SHINE",-76.496208,43.459522,"126 E Oneida St","","Oswego","NY","13126","2375","OSWEGO" 
"DOLLAR GENERAL 5729",-78.038963,43.226234,"16684 State Route 31","","Holley","NY","14470","9074","ORLEANS" 
"DOLLAR GENERAL 5736",-73.963776,41.616474,"2 Riverview Dr","Ste 4","Marlboro","NY","12542","5324","ULSTER" 
"DOLLAR GENERAL 6955",-78.676811,43.217972,"4015 Lake Ave","","Lockport","NY","14094","1115","NIAGARA" 
"DOLLAR GENERAL 6977",-79.043411,42.646008,"8790 Erie Rd","","Angola","NY","14006","9620","ERIE" 
"DOLLAR GENERAL 6795",-77.101891,42.169655,"82 Victory Hwy","","Painted Post","NY","14870","1007","STEUBEN" 
"Haim's International Health Food Market Inc",-73.820839,40.721344,"14104 77th Rd","","Flushing","NY","11367","3421","QUEENS" 
"Chatzi Chinam Inc",-73.900642,40.700474,"58-22 Myrtle Ave","","Ridgewood","NY","11385","5021","QUEENS" 
"Forever Grocery Inc",-73.628555,40.711418,"157 N Franklin St","","Hempstead","NY","11550","1314","NASSAU" 
"Yijung Market LLC",-73.949738,40.645138,"2919 Beverley Rd","","Brooklyn","NY","11226","5509","KINGS" 
"DOLLAR GENERAL 9428",-75.46048,43.255005,"8220 Turin Rd","","Rome","NY","13440","1914","ONEIDA" 
"DOLLAR GENERAL 8537",-76.137955,43.232697,"5501 Bartel Rd","","Brewerton","NY","13029","8701","ONONDAGA" 
"DOLLAR GENERAL 8960",-78.834984,42.93898,"230 Holden St","","Buffalo","NY","14214","2234","ERIE" 
"Guanina Deli Store",-73.935028,40.800869,"2383 2 Ave","","New York","NY","10035","","NEW YORK" 
"HP of Holbrook Inc",-73.076355,40.794693,"1202 Grundy Ave","","Holbrook","NY","11741","2634","SUFFOLK" 
"RIDGEWOOD FOOD MARKET",-75.267052,43.074459,"2514 Oneida St","","Utica","NY","13501","6309","ONEIDA" 
"Mickey & Elvis College Deli Corp",-73.883965,40.854069,"717 E 187th St","","Bronx","NY","10458","6803","BRONX" 
"New Harlem Halal Meat",-73.955498,40.804192,"2142 Frederick Douglass Blvd","","New York","NY","10026","2306","NEW YORK" 
"Metro Deli of Northside Corp",-73.955322,40.7141,"78 Havemeyer St","","Brooklyn","NY","11211","","KINGS" 
"VC Deli Grocery",-73.89048,40.848877,"640 E 180th St","","Bronx","NY","10457","3462","BRONX" 
"THE MUSTARD SEED NATURAL FOOD MARKET",-76.507782,43.459023,"18 E Cayuga St","Ste 8","Oswego","NY","13126","2128","OSWEGO" 
"DOLLAR GENERAL 5701",-78.683334,42.901356,"5150 Broadway","","Depew","NY","14043","4021","ERIE" 
"DOLLAR GENERAL 6717",-78.962692,43.091862,"8735 Niagara Falls Blvd","","Niagara Falls","NY","14304","1947","NIAGARA" 
"DOLLAR GENERAL 6959",-77.671028,42.821869,"7 Main St","","Livonia","NY","14487","9100","LIVINGSTON" 
"Tejeda Deli Grocery",-73.795914,40.909176,"255 Union Ave","","New Rochelle","NY","10801","5935","WESTCHESTER" 
"Tropical  Dairy Farm Corp",-73.881332,40.882545,"3494 Jerome Ave","","Bronx","NY","10467","1002","BRONX" 
"Los 3 Hermanos Panaderia Y Productos Mexicanos Cor",-73.879585,40.875668,"3197 Bainbridge Ave","","Bronx","NY","10467","3907","BRONX" 
"DESANTIS MEAT MARKET & DELI INC",-75.185036,43.259319,"8196 State Route 12","","Barneveld","NY","13304","2311","ONEIDA" 
"Petel Yengue Meat Corp",-73.911774,40.848431,"1770 Jerome Ave","","Bronx","NY","10453","5708","BRONX" 
"New Al-Habib Inc",-73.715424,40.735783,"25202 Hillside Ave","","Bellerose","NY","11426","2151","QUEENS" 
"El Puerto Seafood Corp",-73.95665,40.81385,"511 W 125 St","","New York","NY","10027","3415","NEW YORK" 
"Sosa Deli Grocery Inc",-73.88784,40.932663,"202 Elm St","","Yonkers","NY","10701","8965","WESTCHESTER" 
"1296 Rivera Grocery Inc",-73.917587,40.837379,"1296 Walton Ave","","Bronx","NY","10452","7604","BRONX" 
"FRANKLIN STREET DAIRY & MARKET",-75.907379,43.972565,"261 Franklin St","","Watertown","NY","13601","3337","JEFFERSON" 
"SHOP RITE OF GARNERVILLE INC 292",-74.00708,41.199799,"56 W Ramapo Rd","","Garnerville","NY","10923","2011","ROCKLAND" 
"Imperial Meat Inc",-73.96682,40.576496,"205 Brighton Beach Ave","","Brooklyn","NY","11235","7406","KINGS" 
"CVS PHARMACY INC 7881",-73.855225,40.711178,"9715 Metropolitan Ave","","Forest Hills","NY","11375","6601","QUEENS" 
"Paul Supermarket Inc",-73.931015,40.692265,"1023 Lafayette Ave","","Brooklyn","NY","11221","","KINGS" 
"BG SINGH CITGO MART",-79.056168,43.094967,"700 Main St","","Niagara Falls","NY","14301","1704","NIAGARA" 
"DOLLAR GENERAL 6915",-76.845985,42.349888,"142 N Catherine St","","Montour Falls","NY","14865","9664","SCHUYLER" 
"DOLLAR GENERAL 6948",-77.058701,42.653576,"252 Lake Street Plz","","Penn Yan","NY","14527","1811","YATES" 
"Iavarone Bros of Wantagh LLC",-73.507607,40.694481,"1166 Wantagh Ave","","Wantagh","NY","11793","2110","NASSAU" 
"W.I.N. Inc DBA May Wah Vegetarian Market",-73.998772,40.718517,"213 Hester St","","New York","NY","10013","3615","NEW YORK" 
"Jasmin Grocery Store",-73.956322,40.694576,"679 Myrtle Ave","Ste A","Brooklyn","NY","11205","3949","KINGS" 
"Bay Side Mini Mart Inc",-73.935112,40.584133,"3119 Emmons Ave","","Brooklyn","NY","11235","1724","KINGS" 
"LUCKY # 1 STORE",-78.887497,42.915283,"405 Hampshire St","Ste A","Buffalo","NY","14213","1900","ERIE" 
"AB Supermarkets Inc",-73.635559,40.725029,"153 7th St","","Garden City","NY","11530","5770","NASSAU" 
"MOTIS SUPERMARKET INC",-74.069145,41.109303,"19 Main St","","Monsey","NY","10952","3707","ROCKLAND" 
"OMEGA DELI COMPANY",-78.765892,42.839603,"455 CENTER ROAD","","WEST SENECA","NY","14224","","ERIE" 
"719 Brothers Famous Deli Corp",-73.989517,40.762749,"719 9 Ave","","New York","NY","10019","","NEW YORK" 
"New Cindy Mini Market Corp",-73.786118,41.029625,"240 Battle Ave","","White Plains","NY","10606","2148","WESTCHESTER" 
"A-1 HALAL MEAT AND GROCERIES",-75.920937,42.099434,"59 MAIN STREET","","BINGHAMTON","NY","13905","","BROOME" 
"Northville Farms DF",-72.616684,40.971107,"5333 Sound Ave","","Riverhead","NY","11901","5639","SUFFOLK" 
"WALGREEN 06982",-73.962761,40.607002,"946 Kings Hwy","Ste 1","Brooklyn","NY","11223","2350","KINGS" 
"Chang Fa Food Market Inc",-73.957123,40.598686,"1418 Avenue U","","Brooklyn","NY","11229","3320","KINGS" 
"99 Cents Paradise Inc",-73.9011,40.74588,"6311 Roosevelt Ave","","Woodside","NY","11377","3641","QUEENS" 
"La Quebradita Grocery Corp",-74.087494,40.638542,"405 Jersey St","","Staten Island","NY","10301","2227","RICHMOND" 
"FASTRAC MARKETS # 246",-75.249908,43.087273,"1672 Oneida St","","Utica","NY","13501","4727","ONEIDA" 
"1610 Nostrand Food Corp",-73.949165,40.646755,"1610 Nostrand Ave","","Brooklyn","NY","11226","5516","KINGS" 
"Toledo Grocery Store Inc",-73.889137,40.813808,"670 Barretto St","","Bronx","NY","10474","","BRONX" 
"Whole Foods Market 10162",-73.989883,40.734646,"4 Union Sq S","","New York","NY","10003","4196","NEW YORK" 
"DOLLAR GENERAL 9839",-77.963921,42.127464,"98 Bolivar Rd","","Wellsville","NY","14895","9303","ALLEGANY" 
"DOLLAR GENERAL 7491",-74.472435,42.680347,"813 E Main St","","Cobleskill","NY","12043","5011","SCHOHARIE" 
"PRICE CHOPPER 206",-75.437546,43.233158,"1790 Black River Blvd N","","Rome","NY","13440","2454","ONEIDA" 
"PRICE CHOPPER 210",-74.996651,42.856571,"1 Main St","","Richfield Springs","NY","13439","2527","OTSEGO" 
"Danar Meat Corp",-73.935394,40.832142,"159-04 Harlem River Dr","","New York","NY","10039","","NEW YORK" 
"Chinelus Corp",-73.884628,40.854263,"695 E 187th St","","Bronx","NY","10458","6801","BRONX" 
"Austin Fruit & Vegetable Corp",-73.854675,40.723808,"6725 Austin St","","Forest Hills","NY","11375","3533","QUEENS" 
"Lucky Deli & Grocery",-74.066177,40.614044,"1200 Bay St","","Staten Island","NY","10305","3120","RICHMOND" 
"Family Deli Grocery",-74.120628,40.634209,"1138 Castleton Ave","","Staten Island","NY","10310","1727","RICHMOND" 
"A.S. Convenient Corp.",-77.599213,43.182171,"934 Hudson Ave","","Rochester","NY","14621","3746","MONROE" 
"Best Yet Market of Hicksville Inc",-73.518585,40.749619,"434 Jerusalem Ave","","Hicksville","NY","11801","5504","NASSAU" 
"Rite Aid 10699",-73.824883,42.773022,"1215 Troy Schenectady Rd","","SCHENECTADY","NY","12309","","SCHENECTADY" 
"ROYAL IMPORTS",-75.208862,43.084286,"1201 Albany St","","Utica","NY","13501","3309","ONEIDA" 
"NY KING MART",-77.598328,43.158913,"527 E Main St","","Rochester","NY","14604","2509","MONROE" 
"Beba Grocery Corp",-73.903305,40.855999,"2183 Morris Ave","","Bronx","NY","10453","2510","BRONX" 
"CEDAR STREET DELI & GROCERY 800121404",-74.00795,41.927448,"109 Cedar St","","Kingston","NY","12401","5058","ULSTER" 
"STOP & SHOP 583",-72.982536,40.824806,"700-30 PATCHOQUE RD","","MEDFORD","NY","11763","","SUFFOLK" 
"STOP & SHOP 502",-73.663872,40.997746,"25 Waterfront Pl","","Port Chester","NY","10573","6001","WESTCHESTER" 
"Roosevelt Fruits & Vegetables",-73.868141,40.749264,"97-02 Roosevelt Ave","","Corona","NY","11368","2130","QUEENS" 
"STOP & SHOP 512",-74.169296,40.57933,"2795 Richmond Ave","Ste 1","Staten Island","NY","10314","5857","RICHMOND" 
"STOP & SHOP 581",-74.114716,40.565372,"2754 Hylan Blvd","","Staten Island","NY","10306","4658","RICHMOND" 
"LACKAWANNA SAVE A LOT 24444",-78.805161,42.830601,"1234 Abbott Rd","Ste 350","Buffalo","NY","14218","1951","ERIE" 
"Western Beef Retail Inc 53",-73.902008,40.694405,"1089 Wyckoff Ave","","Ridgewood","NY","11385","5751","QUEENS" 
"La Poblanita Deli Grocery Corp",-73.665672,41.00486,"73 Poningo St","","Port Chester","NY","10573","4030","WESTCHESTER" 
"Collage Ave Deli & Market Inc",-73.912727,40.833294,"288 E 168th St","#1","Bronx","NY","10456","","BRONX" 
"Arthur Ave Italian Deli Inc",-73.888519,40.854343,"2344A Arthur Ave","","Bronx","NY","10458","8104","BRONX" 
"1654 METROPOLITAN AVE",-73.855507,40.84034,"1654 Metropolitan Ave","","Bronx","NY","10462","6903","BRONX" 
"Jennings Fruits & Vegetables Inc",-73.890114,40.832237,"937 Jennings St","","Bronx","NY","10460","6034","BRONX" 
"Patel Grocery Corp",-74.014359,40.644627,"5303 4th Ave","","Brooklyn","NY","11220","3003","KINGS" 
"RD & R Deli & Grocery Corp",-74.088264,40.611664,"612 Richmond Rd","","Staten Island","NY","10304","2410","RICHMOND" 
"HANNIBAL QUICK MART INC",-76.578926,43.320793,"971 Cayuga St","","Hannibal","NY","13074","3138","OSWEGO" 
"Central Yetev Lev D'Satmar Meat Inc",-73.959816,40.706116,"187 Ross St","","Brooklyn","NY","11211","7204","KINGS" 
"TOMION'S FARM MARKET",-77.067528,42.751667,"200 State Route 14A","","Penn Yan","NY","14527","9134","YATES" 
"Utica Halal Live Poultry Corp",-73.931396,40.661919,"473 Utica Ave","","Brooklyn","NY","11203","1318","KINGS" 
"El Loco Pollo Meat Mrkt Inc",-73.894463,40.929138,"33 Park Hill Ave","","Yonkers","NY","10701","4140","WESTCHESTER" 
"COUNTRY FARMS",-73.968735,42.789867,"2541 Guilderland Ave","","Rotterdam","NY","12306","3801","SCHENECTADY" 
"Lic Family Deli Grocery Corp",-73.94149,40.761833,"3563 9th St","","Astoria","NY","11106","5103","QUEENS" 
"Santa Ana Deli & Grocery Corp",-73.919891,40.702168,"171 Irving Ave","","Brooklyn","NY","11237","4200","KINGS" 
"Yoon Fish Market",-73.900612,40.868237,"79 W Kingsbridge Rd","","Bronx","NY","10468","7512","BRONX" 
"CANTON FARMER'S MARKET",-75.150574,44.582851,"VILLAGE GREEN","","CANTON","NY","13617","","ST LAWRENCE" 
"SKIP'S IN THE VILLAGE",-77.443542,43.100262,"102 Fairport Village Lndg","","Fairport","NY","14450","1804","MONROE" 
"CAVES FOOD CENTER",-79.177841,42.468376,"3-5 Main St","","Forestville","NY","14062","9777","CHAUTAUQUA" 
"Third Ave Grocery & Deli",-73.913025,40.82024,"3047 3rd Ave","","Bronx","NY","10451","4607","BRONX" 
"A S Supermarket",-73.864693,40.686066,"7510A 91st Ave","","Woodhaven","NY","11421","2824","QUEENS" 
"SUNOCO    7471",-76.809013,42.091225,"359 N Main St","","Elmira","NY","14901","2727","CHEMUNG" 
"IGUA  Food Corp",-73.89209,40.860378,"421 E 189th St","","Bronx","NY","10458","5506","BRONX" 
"RAVENA SHOP'N SAVE",-73.816467,42.466927,"2481 ROUTE 9W","FAITH PLAZA","RAVENA","NY","12143","","ALBANY" 
"Gleason Grocery Corp",-73.866577,40.82988,"1791 Gleason Ave","","Bronx","NY","10472","4745","BRONX" 
"Hermanos Barrientos Mini Market Corp",-73.869278,40.687893,"394 Etna St","","Brooklyn","NY","11208","1802","KINGS" 
"Adum African Market Inc",-73.922188,40.838287,"1263A Edward L Grant Hwy","","Bronx","NY","10452","3101","BRONX" 
"S & A Convenience Inc",-73.292114,40.738564,"42 Bay Shore Rd","","Bay Shore","NY","11706","3603","SUFFOLK" 
"1001 San Miguel Food Center Inc",-73.919693,40.829147,"1001 Sheridan Ave","","Bronx","NY","10456","6376","BRONX" 
"DR 731 INC.",-73.959724,40.655136,"731 Flatbush Ave","","Brooklyn","NY","11226","1403","KINGS" 
"GAJESKI PRODUCE DF",-72.614342,40.972725,"5403 Sound Ave","","Riverhead","NY","11901","5610","SUFFOLK" 
"DOLLAR GENERAL 6766",-76.065346,42.09449,"310 Exchange Ave","","Endicott","NY","13760","6010","BROOME" 
"Staten Convenient Food Market",-74.08139,40.636799,"164 Victory Blvd","","Staten Island","NY","10301","2946","RICHMOND" 
"K.F. And Kids Inc",-74.078827,40.638332,"1 Corson Ave","","Staten Island","NY","10301","2922","RICHMOND" 
"Pak O Avenue Corp",-73.981506,40.610519,"97 Avenue O","","Brooklyn","NY","11204","6542","KINGS" 
"Chocolate Deli & Grocery Inc",-73.880234,40.741329,"8273 Broadway","","Elmhurst","NY","11373","3352","QUEENS" 
"POUGHKEEPSIE FARM PROJECT CSA",-73.911682,41.707977,"HOOKER & RAYMOND AVES","","POUGHKEEPSIE","NY","12601","","DUTCHESS" 
"WALGREEN 02758",-73.864555,41.080116,"162 Wildey St","","Tarrytown","NY","10591","2910","WESTCHESTER" 
"F & G Meat Inc",-73.948364,40.640396,"1859 Nostrand Ave","","Brooklyn","NY","11226","7922","KINGS" 
"River Way Deli & Grocery Corp",-73.898483,40.927814,"50 Herriot St","","Yonkers","NY","10701","4788","WESTCHESTER" 
"Villas Market Place Inc",-73.903412,40.880959,"5665 Broadway","","Bronx","NY","10463","4147","BRONX" 
"UKIE'S",-73.497284,44.653965,"132 Irish Settlement Rd","","Plattsburgh","NY","12901","5827","CLINTON" 
"6th Ave. Deli Inc",-73.976074,40.678173,"133 6th Ave","","Brooklyn","NY","11217","3522","KINGS" 
"Charo West Indian Grocery",-73.870949,40.679073,"396 Crescent St","","Brooklyn","NY","11208","2830","KINGS" 
"GRISTEDES 601",-73.96833,40.799236,"2700 Broadway","","New York","NY","10025","8740","NEW YORK" 
"White Plains Fruits And Vegetables Inc",-73.863022,40.882919,"3754 White Plains Rd","Frnt 1","Bronx","NY","10467","5731","BRONX" 
"Bonao Meats And Produce Inc",-73.937996,40.847862,"4189 Broadway","","New York","NY","10033","3735","NEW YORK" 
"KHAL DIVREI CHAIM-NOACH STROBEL",-74.835533,41.680023,"86 W SHORE RD","","KAUNEONGA LAKE","NY","12749","","SULLIVAN" 
"ANDY'S QUICK STOP",-79.039131,43.088596,"1822 Niagara St","","Niagara Falls","NY","14303","1627","NIAGARA" 
"HATIMY MARKET",-78.890251,42.921505,"278 Grant St","","Buffalo","NY","14213","1421","ERIE" 
"CVS PHARMACY INC. 1770",-73.763321,41.024998,"325 Mamaroneck Ave","","White Plains","NY","10605","1440","WESTCHESTER" 
"Clinton Supermarket & Mall Corp",-74.036888,40.616173,"90-96 Clinton St","","New York","NY","10002","","NEW YORK" 
"Aziz Enterprise Corp",-73.869476,40.844093,"603 Morris Park Ave","","Bronx","NY","10460","2534","BRONX" 
"MOUNTAIN MART # 106",-75.15062,44.596867,"103 E Main St","","Canton","NY","13617","1445","ST LAWRENCE" 
"SAM'S MINI MARKET INC",-75.261497,43.109764,"2107 Whitesboro St","","Utica","NY","13502","3230","ONEIDA" 
"ALDI 80",-78.878349,42.953869,"2090 Elmwood Ave","","Buffalo","NY","14207","","ERIE" 
"FOOD BUYING OF MOSDOS INC",-74.585312,41.756351,"218 Firehouse Rd","","Woodbourne","NY","12788","5721","SULLIVAN" 
"S & R Deli Grocery Corp",-73.910515,40.83741,"300 E 170th St","","Bronx","NY","10456","1106","BRONX" 
"Amapen Mini Mart Corp",-73.859215,40.751511,"3802 108th St","","Corona","NY","11368","2021","QUEENS" 
"UPSTATE CONVENIENCE MARKET LLC",-76.157852,43.028488,"919 South Ave","","Syracuse","NY","13207","1820","ONONDAGA" 
"SENECA KNOLLS  BIG M",-76.286652,43.12133,"7252 State Fair Blvd","","Syracuse","NY","13209","1867","ONONDAGA" 
"Supreme Health Food Center USA LLC",-73.984291,40.632244,"4624 16th Ave","","Brooklyn","NY","11204","1104","KINGS" 
"Fifth Avenue Gourmet Deli Inc",-73.935875,40.81509,"2289 Fifth Ave","","New York","NY","10037","1702","NEW YORK" 
"Abreu Grocery",-73.899567,40.830776,"773 E 169th St","","Bronx","NY","10456","2609","BRONX" 
"99 Cent Blast Inc",-73.948547,40.641075,"1838 Nostrand Ave","","Brooklyn","NY","11226","7132","KINGS" 
"JIB Deli & Grocery Corp",-73.864174,40.752666,"37-22 103 St","","Corona","NY","11368","1953","QUEENS" 
"SHOP RITE OF WEST BABYLON",-73.34584,40.704823,"50-110 Route 109","","West Babylon","NY","11704","6208","SUFFOLK" 
"Beech Grocery Corp",-73.889908,40.931286,"111 Beech St","","Yonkers","NY","10701","4303","WESTCHESTER" 
"Market at Bissel Gardens - JUST FOODS - FM",-73.846916,40.901524,"Baychester Ave & 241st ST","","BRONX","NY","10457","","BRONX" 
"A & E Convenience Corp",-73.935555,40.601376,"3090 Avenue U","","Brooklyn","NY","11229","5117","KINGS" 
"WALGREEN 01214",-73.959084,40.76775,"1328 2nd Ave","","New York","NY","10021","5202","NEW YORK" 
"WALGREEN 01013",-73.904953,40.878643,"5564 Broadway","","Bronx","NY","10463","5216","BRONX" 
"23-34 94 ST GROC CORP",-73.876083,40.767136,"2334 94th St","","East Elmhurst","NY","11369","1106","QUEENS" 
"L & A Food Corp",-73.950737,40.66626,"891 Nostrand Ave","","Brooklyn","NY","11225","3002","KINGS" 
"RAVENWOOD CSA",-73.936798,40.759861,"3535 21st St Apt 2F","","Long Island City","NY","11106","4716","QUEENS" 
"WALGREEN 01180",-73.929382,40.762321,"3355 Crescent St","#67","Long Island City","NY","11106","3809","QUEENS" 
"WALGREEN 01487",-73.848381,40.723721,"10425 Queens Blvd","","Forest Hills","NY","11375","3757","QUEENS" 
"Walgreens 04029",-74.112427,41.112114,"209 Route 59","","Suffern","NY","10901","5203","ROCKLAND" 
"WALGREEN 04445",-73.818832,40.676044,"11902 Rockaway Blvd","","S Ozone Park","NY","11420","2422","QUEENS" 
"Father & Sons Deli Food Corp",-73.964439,40.64127,"1501 Cortelyou Rd","","Brooklyn","NY","11226","5607","KINGS" 
"WALGREEN 07675",-73.987465,40.740711,"33 E 23rd St","","New York","NY","10010","3639","NEW YORK" 
"RITE AID 1538",-79.037971,43.172489,"731 Center St","","Lewiston","NY","14092","1705","NIAGARA" 
"FINE FOOD & GAS LLC",-76.558617,42.930531,"50 Owasco St","","Auburn","NY","13021","4083","CAYUGA" 
"Dollar Resort Inc",-73.917152,40.834156,"190 E 167th St","","Bronx","NY","10456","4002","BRONX" 
"Dollar Commercial LLC",-73.916725,40.806568,"589 E 138th St","","Bronx","NY","10454","2702","BRONX" 
"DOLLAR GENERAL 7698",-73.999863,41.938103,"363 Foxhall Ave","","Kingston","NY","12401","2607","ULSTER" 
"DOLLAR GENERAL 10141",-76.058174,42.198486,"2658 State Route 26","","Maine","NY","13802","1006","BROOME" 
"DOLLAR GENERAL 6958",-75.549232,42.832451,"113 Utica St","","Hamilton","NY","13346","2001","MADISON" 
"Mooney Pond Deli & Market Inc",-73.042236,40.851913,"374 Mooney Pond Rd","","Farmingville","NY","11738","1481","SUFFOLK" 
"Benny & Sons Grocery Corp",-73.880882,40.701969,"7001 Myrtle Ave","","Glendale","NY","11385","7261","QUEENS" 
"Main Street Market",-75.132698,44.748077,"3744 County Route 14","","Madrid","NY","13660","3153","ST LAWRENCE" 
"Walmart SUPERCENTER 5242",-76.120705,43.160175,"8064 Brewerton Rd","","Cicero","NY","13039","9584","ONONDAGA" 
"DEXTER MARKET",-76.044563,44.00705,"308 Brown St","","Dexter","NY","13634","3152","JEFFERSON" 
"COUNCIL ON THE ENVIRONMENT,INC -GM",-74.005394,40.713814,"51 Chambers St","Ste 1231","New York","NY","10007","1240","NEW YORK" 
"KINNEY DRUGS INC 66",-76.996529,43.060394,"20 Forgham St","","Lyons","NY","14489","1308","WAYNE" 
"KINNEY DRUGS INC 75",-76.556435,43.055717,"2783 Route 31","","WEEDSPORT","NY","13166","","CAYUGA" 
"KINNEY DRUGS INC 73",-76.421478,42.712074,"130 Main St","","Moravia","NY","13118","","CAYUGA" 
"Kinney Drugs 74",-76.12188,42.801022,"596 Route 11","","TULLY","NY","13159","","ONONDAGA" 
"KINNEY DRUGS INC 72",-76.43158,42.947372,"23 Fennell St","","Skaneateles","NY","13152","1117","ONONDAGA" 
"KINNEY DRUGS INC 68",-75.549278,42.832592,"103 Utica St","","Hamilton","NY","13346","1100","MADISON" 
"KINNEY DRUGS INC 67",-75.854248,42.929928,"41 Albany St","","Cazenovia","NY","13035","1214","MADISON" 
"Discount Columbia LLC",-74.007751,40.674595,"498 Columbia St","","Brooklyn","NY","11231","1918","KINGS" 
"DELTA SONIC CONVENIENCE STORE",-78.867065,42.908154,"1264 Main St","","Buffalo","NY","14209","1912","ERIE" 
"Gavilan Inc",-73.92585,41.288864,"601 South St","","Peekskill","NY","10566","3211","WESTCHESTER" 
"Central Mini Market Incorporated",-73.861404,40.679161,"7620 Liberty Ave","","Ozone Park","NY","11417","1035","QUEENS" 
"Smart Way Mini Mart",-73.922592,40.767426,"2928 30th Ave","Ste 1","Astoria","NY","11102","2250","QUEENS" 
"Larosa Foods Inc",-73.938248,40.847061,"4161 Broadway","","New York","NY","10033","3730","NEW YORK" 
"HUDSON FARMER'S MARKET",-73.794838,42.256981,"6 Columbia St","","Hudson","NY","12534","1827","COLUMBIA" 
"CCA Food Corp",-73.874908,40.831818,"1623 E 172nd St","","Bronx","NY","10472","2203","BRONX" 
"Ave K Mini Mart Inc",-73.964737,40.622093,"1452 Coney Island Ave","","Brooklyn","NY","11230","4714","KINGS" 
"Tops 264",-79.318535,42.458527,"3955 Vineyard Dr","","Dunkirk","NY","14048","3558","CHAUTAUQUA" 
"F & B Deli Mini Mart Inc",-73.764183,40.672401,"13802 Farmers Blvd","","Jamaica","NY","11434","4732","QUEENS" 
"Sea Green Fish Market",-73.948402,40.650822,"3102 Church Ave","","Brooklyn","NY","11226","4212","KINGS" 
"WALDEN GROCERIES",-78.834061,42.903572,"57 Walden Ave","","Buffalo","NY","14211","2219","ERIE" 
"FLYING H",-77.220375,42.282635,"68 Main St","","Savona","NY","14879","9704","STEUBEN" 
"Tirado Enterprises Inc dba Butcher's Choice II",-73.916817,40.815765,"427 E 149th St","","Bronx","NY","10455","3904","BRONX" 
"Cruz Meat Corporation",-73.903885,40.858341,"2262 Jerome Ave","","Bronx","NY","10453","1804","BRONX" 
"Andy Deli Grocery Inc",-74.012344,40.650093,"4522 3 Ave","","Brooklyn","NY","11220","","KINGS" 
"FASTRAC MARKET #222",-75.956566,43.974453,"20852 State Route 3","","Watertown","NY","13601","5578","JEFFERSON" 
"EXXON SOUTH CAIRO",-73.957268,42.276379,"ROUTE 23B ROSS RULAND RD","","SOUTH CAIRO","NY","12482","","GREENE" 
"RITE AID 2727",-73.931595,40.852192,"1510 Saint Nicholas Ave","","New York","NY","10033","3124","NEW YORK" 
"Ivoire African Market Inc",-73.897522,40.829636,"1339 Prospect Ave","","Bronx","NY","10459","1785","BRONX" 
"Bimbo Bakeries 6030",-74.347504,41.396484,"9 Police Dr","","Goshen","NY","10924","6730","ORANGE" 
"RITE AID 2010",-73.939148,40.84269,"4046 Broadway","","New York","NY","10032","1517","NEW YORK" 
"RITE AID 7760",-73.954628,40.805393,"2170 Frederick Douglass Blvd","","New York","NY","10026","1149","NEW YORK" 
"Espinal Food Center Corp",-73.924355,40.843639,"1440 Dr Martin L King Jr Blvd","","Bronx","NY","10452","1502","BRONX" 
"Ellery St Market Corp",-73.949738,40.698158,"499 Marcy Ave","","Brooklyn","NY","11206","7403","KINGS" 
"CITY CORNER FOOD PLUS",-78.839195,42.915577,"1538 Fillmore Ave","","Buffalo","NY","14211","1135","ERIE" 
"Walmart SUPERCENTER 1966",-77.788132,42.800728,"4235 Veteran Dr","","Geneseo","NY","14454","9433","LIVINGSTON" 
"ROUND OUT VALLEY GROCERY",-74.230888,41.78941,"5060 US Highway 209","","Accord","NY","12404","5719","ULSTER" 
"Bronx Gourmet Food Corp",-73.881516,40.844589,"921A E 180th St","","Bronx","NY","10460","2035","BRONX" 
"DOWNTOWN BINGHAMTON FARMERS MARKET",-75.911713,42.097153,"1 COLLIER ST","","BINGHAMTON","NY","13901","","BROOME" 
"BLP Meat Market Corp",-73.98497,40.719204,"72 Clinton St","","New York","NY","10002","2430","NEW YORK" 
"SAMMY'S MINI MARKET",-76.407158,43.318249,"371 S 5th St","","Fulton","NY","13069","2629","OSWEGO" 
"NAMASTE",-77.634705,43.091045,"3047 W HENRIETTA RD","","ROCHESTER","NY","14623","","MONROE" 
"Discount Dream LLC dba Dollar Dreams",-73.916977,40.654808,"9415 Church Ave","","Brooklyn","NY","11212","1647","KINGS" 
"JOE'S ITALIAN FOOD MARKET INC",-73.358231,40.72324,"997 Little East Neck Rd","","West Babylon","NY","11704","2401","SUFFOLK" 
"New Elmont Discount Store Inc",-73.709785,40.708153,"485B Hempstead Tpke","","Elmont","NY","11003","","NASSAU" 
"333 J & M Food Corp",-73.915077,40.70723,"333 Seneca Ave","","Ridgewood","NY","11385","1338","QUEENS" 
"New Dhaka Products Inc",-73.803223,40.707554,"15332 Hillside Ave","","Jamaica","NY","11432","3322","QUEENS" 
"DJ Grocery Deli NY Inc",-73.879135,40.736881,"8406 Queens Blvd","","Elmhurst","NY","11373","4239","QUEENS" 
"Illes Kosher Poultry Corp",-73.989151,40.627563,"5502 16th Ave","","Brooklyn","NY","11204","1806","KINGS" 
"SULLIVAN COUNTY FARMERS MARKET",-74.742981,41.799191,"DARBEE LN","MUNICIPAL LOT","LIBERTY","NY","12754","","SULLIVAN" 
"Kenny Grocery",-73.933685,40.692677,"531 Kosciusko St","","Brooklyn","NY","11221","2332","KINGS" 
"Burgos Deli Grocery Inc",-73.924393,40.812458,"2634 3rd Ave","","Bronx","NY","10454","1101","BRONX" 
"NEWARK VALLEY QUICK SHOP",-76.184433,42.223042,"23 S Main St","","Newark Valley","NY","13811","5723","TIOGA" 
"E H Food Inc",-73.987587,40.663731,"556 6th Ave","","Brooklyn","NY","11215","5410","KINGS" 
"KARL'S MARKET INC",-75.249115,43.096367,"1414 Sunset Ave","","Utica","NY","13502","5118","ONEIDA" 
"Greenstar Cooperative Market Inc",-76.499046,42.440849,"215 N Cayuga St","","Ithaca","NY","14850","","TOMPKINS" 
"City Minimax Inc",-78.826729,42.92234,"817 E Delavan Ave","","Buffalo","NY","14215","3040","ERIE" 
"SANA FOOD MARKET",-77.588341,43.175484,"1271 Clifford Ave","","Rochester","NY","14621","5636","MONROE" 
"SAVE-A-LOT 841",-73.678871,42.739407,"120-156 HOOSICK ST","","TROY","NY","12180","","RENSSELAER" 
"JERUSALEM SUPER MARKET",-76.123421,43.076077,"1927 Teall Ave","","Syracuse","NY","13206","1929","ONONDAGA" 
"EUROPA DELI",-77.4879,43.130634,"1694 PENFIELD ROAD","","ROCHESTER","NY","14625","","MONROE" 
"Copan Deli Corporation",-73.794434,40.693359,"108-55 157 St","","Jamaica","NY","11433","2744","QUEENS" 
"MERRICK AFRICAN-CARRIBEAN MARKET INC",-73.736931,40.67482,"23204 Merrick Blvd","","Springfield Gardens","NY","11413","2115","QUEENS" 
"Los Cuatro Hermanos Grocery Inc",-73.908379,40.813065,"740 E 149 St","","Bronx","NY","10455","","BRONX" 
"550 East 139th Street Inc",-73.917305,40.807594,"550 East 139th Street","","Bronx","NY","10454","2607","BRONX" 
"OJ Fruit Corp",-73.960518,40.659889,"565 Flatbush Ave","","Brooklyn","NY","11225","4801","KINGS" 
"A.S.M. Pharmacy Corp",-73.958801,40.618114,"1604 Avenue M","","Brooklyn","NY","11230","6007","KINGS" 
"SCHENECTADY FARMERS MARKET-CORNELL COOP EXT SCH'DY",-73.934341,42.812943,"Jay St","City Hall","Schenectady","NY","12308","3170","SCHENECTADY" 
"Kirk Food Sale",-79.036751,43.159897,"5163 Military Rd","","Lewiston","NY","14092","1901","NIAGARA" 
"CRAIG DELI & GROCERY",-73.935822,42.805706,"315 Craig St","","Schenectady","NY","12307","1420","SCHENECTADY" 
"RITE AID 4610",-73.855156,40.692734,"8910 Jamaica Ave","","Woodhaven","NY","11421","2040","QUEENS" 
"DOLLAR GENERAL 7505",-77.30632,42.35062,"7183 State Route 54","Suite 101","Bath","NY","14810","9502","STEUBEN" 
"Family Minimarket",-73.95076,40.661678,"1080 Nostrand Ave","","Brooklyn","NY","11225","4120","KINGS" 
"DOLLAR GENERAL 10153",-76.365807,42.021751,"65 E River Rd","","Nichols","NY","13812","2501","TIOGA" 
"New Green Deli",-73.901657,40.749294,"37-07 61 St","","Woodside","NY","11377","","QUEENS" 
"DOLLAR GENERAL 10071",-77.03756,43.229736,"7269 Ridge Rd","","Sodus","NY","14551","9336","WAYNE" 
"DOLLAR GENERAL 8626",-75.034714,43.015034,"70 Central Plz","","Ilion","NY","13357","1701","HERKIMER" 
"261 Food Corp",-73.942017,40.670757,"261 Kingston Ave","","Brooklyn","NY","11213","3433","KINGS" 
"Salahi Live Poultry Inc",-73.8395,40.877087,"3313 Ely Ave","","Bronx","NY","10469","3163","BRONX" 
"NAMMON CITGO MART",-78.89386,42.900536,"214 Porter Ave","","Buffalo","NY","14201","1050","ERIE" 
"Y & S Deli Corp",-73.950294,40.657188,"1228 Nostrand Ave","","Brooklyn","NY","11225","3845","KINGS" 
"HARVEST HOME FARMERS MARKET",-73.937943,40.805443,"104 E 126th St","","New York","NY","10035","","NEW YORK" 
"URBAN OASIS - FM",-73.937653,40.656223,"681 Clarkson Ave","","Brooklyn","NY","11203","2125","KINGS" 
"VILLAGE OF SAUGERTIES FARMERS MARKET",-73.95401,42.077404,"MAIN & MARKET STREETS","","SAUGERTIES","NY","12477","","ULSTER" 
"DOLLAR GENERAL 10064",-76.674667,42.549217,"9814 State Route 96","","Trumansburg","NY","14886","9327","TOMPKINS" 
"DOLLAR GENERAL 8211",-77.752846,43.10392,"3240 Chili Ave","","Rochester","NY","14624","5438","MONROE" 
"Dollar General 8903",-75.31913,43.477333,"13194 State Route 12","","Boonville","NY","13309","4946","ONEIDA" 
"Shlomi Glat Inc",-73.961273,40.598976,"2380 Coney Island Ave","","Brooklyn","NY","11223","5002","KINGS" 
"DOLLAR GENERAL 5897",-77.611671,42.921051,"1464 Rochester St","","Lima","NY","14485","","LIVINGSTON" 
"DOLLAR GENERAL 7422",-74.378151,42.954224,"41 W Main St","","Fonda","NY","12068","4858","MONTGOMERY" 
"DOLLAR GENERAL 6904",-75.79966,44.005817,"28525 State Route 3","","Black River","NY","13612","9998","JEFFERSON" 
"DOLLAR GENERAL 8650",-73.753532,42.762432,"638 Columbia St Ext","","Latham","NY","12110","3053","ALBANY" 
"Flatlands Mini Market Inc",-73.894714,40.647408,"10424 Flatlands Ave","","Brooklyn","NY","11236","2806","KINGS" 
"MALONE FARMERS MARKET",-74.35775,44.845898,"Route 11","DUFORT AIRPORT","MALONE","NY","12953","","FRANKLIN" 
"Deli-icous LLC",-74.098091,40.581444,"1986 Hylan Blvd","","Staten Island","NY","10306","3526","RICHMOND" 
"One Stop African Caribbean Market",-74.118111,40.634438,"1062 Castleton Ave","","Staten Island","NY","10310","1708","RICHMOND" 
"350 EJS Deli Food Corp.",-73.895897,40.921532,"350 S Broadway","","Yonkers","NY","10705","2049","WESTCHESTER" 
"Brighton Family Grocery Corp",-73.957535,40.580132,"105 Brighton 11th St","","Brooklyn","NY","11235","5305","KINGS" 
"VANVRANKEN ENTERPRISES INC",-73.968666,42.79644,"2248 Broadway","","Schenectady","NY","12306","4007","SCHENECTADY" 
"SUNSHINE MINOA FOOD MART",-76.000839,43.070732,"91 Hulbert St","","Minoa","NY","13116","1905","ONONDAGA" 
"Contento Food Center Inc",-73.911018,40.855026,"1999 Dr Martin L King Jr Blvd","","Bronx","NY","10453","4404","BRONX" 
"DOMINICK'S MARKET INC.",-76.138344,43.053883,"139 Gertrude St","","Syracuse","NY","13203","2417","ONONDAGA" 
"CANOLA LIVE POULTRY",-73.995178,40.625885,"1467 61ST ST","","BROOKLYN","NY","11219","5408","KINGS" 
"SAVE-A-LOT KENMORE",-78.872742,42.983437,"3640 Delaware Ave","","Kenmore","NY","14217","1110","ERIE" 
"Shun Chong Food Inc",-73.957039,40.598724,"1406 Avenue U","","Brooklyn","NY","11229","3320","KINGS" 
"7918 Meat Corp",-74.029121,40.628429,"7918 3rd Ave","","Brooklyn","NY","11209","3602","KINGS" 
"Kyoung Fruit & Vegetable Inc.",-73.860519,40.887413,"3960B White Plains Rd","","Bronx","NY","10466","3026","BRONX" 
"Guadalajara De Dia NO#2 Corp",-73.91069,40.704502,"566 Seneca Ave","","Ridgewood","NY","11385","1756","QUEENS" 
"Maulin  Corp",-73.909561,40.834335,"1291 Clay Ave","","Bronx","NY","10456","1754","BRONX" 
"Dominguez Grocery",-73.930885,40.703865,"1004 Flushing Ave","","Brooklyn","NY","11237","1807","KINGS" 
"Ketsie Grocery Inc",-73.90358,40.811687,"865 E 149th St","","Bronx","NY","10455","4610","BRONX" 
"Whole Foods Market 10161",-73.534752,40.787285,"429 N Broadway","","Jericho","NY","11753","2106","NASSAU" 
"Green Wood Minimarket Inc",-73.988586,40.659153,"574 7th Ave","","Brooklyn","NY","11215","6445","KINGS" 
"Majagual Meat Corp",-73.896957,40.914906,"529 S Broadway","","Yonkers","NY","10705","3256","WESTCHESTER" 
"Jin Zheng Fa Inc",-73.827232,40.753166,"4279 Main St","","Flushing","NY","11355","4721","QUEENS" 
"East Side Market - FM",-76.793419,42.089203,"760 E Water St","","Elmira","NY","14901","3398","CHEMUNG" 
"DOLLAR GENERAL 6841",-76.87735,42.903435,"1328 Waterloo Geneva Rd","","Waterloo","NY","13165","1265","SENECA" 
"DOLLAR GENERAL 10097",-78.460869,42.328487,"95 S Main St","","Franklinville","NY","14737","1213","CATTARAUGUS" 
"DOLLAR GENERAL 9052",-78.754234,42.927692,"4144 Union Rd","","Cheektowaga","NY","14225","5041","ERIE" 
"DOLLAR GENERAL 7940",-76.127213,43.143681,"709 N Main St","#721","N Syracuse","NY","13212","1669","ONONDAGA" 
"THRIFTWAY FAR ROCKAWAY DRUG CORP.",-73.753227,40.6045,"2102 Mott Ave","","Far Rockaway","NY","11691","3302","QUEENS" 
"STOP & SHOP 550",-73.405373,40.667866,"351 Merrick Rd","","Amityville","NY","11701","3420","SUFFOLK" 
"STOP & SHOP 541",-73.621094,40.742294,"95 Old Country Rd","","Carle Place","NY","11514","1800","NASSAU" 
"Oak Street Meat Market Inc",-73.889923,40.933243,"62 Oak St","","Yonkers","NY","10701","3921","WESTCHESTER" 
"FT 4620 Food Corp",-73.856743,40.746727,"4620 108th St","","Corona","NY","11368","2915","QUEENS" 
"NI HOOWA SUPERMARKET",-78.816017,42.980274,"3175 Sheridan Dr","","Amherst","NY","14226","1909","ERIE" 
"CENTRAL & GOODMAN MINI MKT",-77.57991,43.168877,"801 Goodman St N","","Rochester","NY","14609","4636","MONROE" 
"ALDI 79",-77.692337,43.165367,"48 Spencerport Rd","","Gates","NY","14606","5206","MONROE" 
"POTSDAM FARMER'S MARKET",-74.977531,44.610168,"MAIN ST","MUNICIPAL PARKING LOT","POTSDAM","NY","13676","","ST LAWRENCE" 
"Campos Deli Grocery",-73.978325,40.603485,"204 Highlawn Ave","","Brooklyn","NY","11223","2648","KINGS" 
"FEDERAL MARKETS",-78.632599,42.765488,"130 Grey St","","East Aurora","NY","14052","2138","ERIE" 
"FEDERAL MEATS",-78.731865,42.978428,"5479 Sheridan Dr","","Buffalo","NY","14221","3609","ERIE" 
"Uncle Grocery, Deli & 99 C Plus Corp",-73.958115,40.641991,"2124 Dorchester Rd","","Brooklyn","NY","11226","6009","KINGS" 
"Main Street Deli Corp",-73.789299,40.903286,"731 Main St","","New Rochelle","NY","10801","6821","WESTCHESTER" 
"Fiteni's Deli Inc",-73.843796,40.91724,"302 N Terrace Ave","","Mount Vernon","NY","10550","1023","WESTCHESTER" 
"Matanza Deli Grocery Corp",-73.848312,40.885803,"4027A Laconia Ave","","Bronx","NY","10466","4917","BRONX" 
"DOLLAR GENERAL 8700",-75.620651,43.985092,"700 W End Ave","","Carthage","NY","13619","1047","JEFFERSON" 
"DOLLAR GENERAL 7326",-74.987022,44.688622,"6598 State Highway 56","","Potsdam","NY","13676","3510","ST LAWRENCE" 
"PRICE CHOPPER 226",-76.485359,43.460896,"137 State Route 104","","Oswego","NY","13126","","OSWEGO" 
"PRICE CHOPPER 213",-75.642746,43.078968,"142 Genesee St","","Oneida","NY","13421","2711","MADISON" 
"PRICE CHOPPER 214",-76.423248,43.324192,"12 W 1st St S","","Fulton","NY","13069","1635","OSWEGO" 
"KABUL MARKET",-77.59967,43.150005,"228 Monroe Ave","","Rochester","NY","14607","3620","MONROE" 
"Mamaroneck Food Corp",-73.740158,40.954857,"712 Old White Plains Rd","","Mamaroneck","NY","10543","1821","WESTCHESTER" 
"DNJ Food Corp",-73.887718,40.8438,"807 E Tremont Ave","","Bronx","NY","10460","4108","BRONX" 
"Paul's Market Place",-73.787285,40.849277,"385 City Island Ave","","Bronx","NY","10464","1300","BRONX" 
"RITE PRICE GAS & FOOD MART INC",-75.43351,43.204388,"1400 E Dominick St","","Rome","NY","13440","6116","ONEIDA" 
"TOPS 277",-78.27681,42.870811,"150 Prospect St","","Attica","NY","14011","1128","WYOMING" 
"RIDGE ST YOGI MART INC",-73.643623,43.31377,"127 Ridge St","","Glens Falls","NY","12801","3215","WARREN" 
"Sterns 58 Corp - DBA/ Sterns Bakery",-73.992661,40.635281,"1278 49th St","","Brooklyn","NY","11219","3011","KINGS" 
"M & R GETTY MART",-73.84948,43.007504,"253 Milton Ave","","Ballston Spa","NY","12020","1414","SARATOGA" 
"A & A Best Produce Inc",-74.023743,40.626884,"7816 5th Ave","","Brooklyn","NY","11209","3704","KINGS" 
"Tompkins Deli Grocery",-73.945122,40.689064,"264 Tompkins Ave","","Brooklyn","NY","11216","1222","KINGS" 
"888 JOSEPH FOOD & DELI",-77.607933,43.180923,"888 Joseph Ave","","Rochester","NY","14621","3430","MONROE" 
"TARGET 1268",-73.821526,42.707657,"1440 Central Ave","Ste 1","Albany","NY","12205","5118","ALBANY" 
"TARGET 1056",-76.001709,42.095673,"3112 Vestal Pkwy E","","Vestal","NY","13850","2038","BROOME" 
"TARGET 1856",-73.917068,41.627068,"2001 South Rd","Stop 1","Poughkeepsie","NY","12601","5979","DUTCHESS" 
"TARGET 1010",-78.822289,42.998016,"1575 Niagara Falls Blvd","","Amherst","NY","14228","2704","ERIE" 
"TARGET 1013",-78.869385,42.956001,"2626 Delaware Ave","","Buffalo","NY","14216","1737","ERIE" 
"TARGET 1014",-78.772438,42.908653,"1750 Walden Ave","","Cheektowaga","NY","14225","4925","ERIE" 
"TARGET 1057",-78.781952,42.791977,"5622 Amanda Ln","","Orchard Park","NY","14127","1555","ERIE" 
"TARGET 1011",-78.696991,42.994968,"8290 Transit Rd","","Williamsville","NY","14221","2820","ERIE" 
"RITE AID 3498",-73.947495,40.632736,"1559 Flatbush Ave","","Brooklyn","NY","11210","3041","KINGS" 
"RITE AID 3888",-73.889267,40.63393,"9738 Seaview Ave","","Brooklyn","NY","11236","5516","KINGS" 
"RITE AID 3958",-73.951042,40.599396,"2002 Avenue U","","Brooklyn","NY","11229","3908","KINGS" 
"RITE AID 4690",-73.937332,40.641689,"4123 Avenue D","","Brooklyn","NY","11203","5705","KINGS" 
"RITE AID 4679",-73.9506,40.650787,"2819 Church Ave","","Brooklyn","NY","11226","4168","KINGS" 
"RITE AID 4876",-73.939911,40.590588,"3823 Nostrand Ave","","Brooklyn","NY","11235","2012","KINGS" 
"RITE AID 4935",-73.979523,40.669235,"249 7th Ave","","Brooklyn","NY","11215","3610","KINGS" 
"RITE AID 4954",-73.914597,40.634579,"7812 Flatlands Ave","","Brooklyn","NY","11236","3530","KINGS" 
"New Morris Deli & Grocery Inc",-73.864449,40.845535,"744 Morris Park Ave","","Bronx","NY","10462","3620","BRONX" 
"TARGET 1195",-77.44136,43.12775,"2161 Fairport Nine Mile Pt Rd","","Fairport","NY","14450","8509","MONROE" 
"TARGET 1157",-77.630524,43.077877,"2325 Marketplace Dr","","Rochester","NY","14623","6009","MONROE" 
"TARGET 1194",-77.694801,43.205112,"600 Greece Ridge Center Dr","","Rochester","NY","14626","2825","MONROE" 
"TARGET 1885",-73.532005,40.774914,"2003 Broadway Mall","","Hicksville","NY","11801","2719","NASSAU" 
"TARGET 1264",-73.492874,40.725483,"3850 Hempstead Tpke","","Levittown","NY","11756","1303","NASSAU" 
"TARGET 1012",-78.978073,43.088047,"7414 Niagara Falls Blvd","","Niagara Falls","NY","14304","1720","NIAGARA" 
"TARGET 1156",-77.446899,43.033318,"7500 Commons Blvd","","Victor","NY","14564","1010","ONTARIO" 
"TARGET 1271",-73.745346,43.101948,"3031 Route 50","","Saratoga Springs","NY","12866","2926","SARATOGA" 
"TARGET 1148",-73.278175,40.72921,"838 Sunrise Hwy","","Bay Shore","NY","11706","5908","SUFFOLK" 
"TARGET 1108",-73.285599,40.840904,"98 Veterans Memorial Hwy","","Commack","NY","11725","3432","SUFFOLK" 
"TARGET 1147",-73.407906,40.689365,"1149 Sunrise Hwy","","Copiague","NY","11726","1330","SUFFOLK" 
"TARGET 1191",-73.102638,40.883198,"265 Pond Path","","South Setauket","NY","11720","2007","SUFFOLK" 
"TARGET 1887",-73.817566,40.902,"500 E Sandford Blvd","Ste 1","Mount Vernon","NY","10550","4751","WESTCHESTER" 
"Tuniservice Corp",-73.989639,40.661736,"306 18th St","","Brooklyn","NY","11215","5405","KINGS" 
"M L Meat Market Inc",-73.999359,40.645241,"4215 8th Ave","","Brooklyn","NY","11232","3907","KINGS" 
"Blessing Food Corp",-73.909828,40.665916,"578 Rockaway Ave","","Brooklyn","NY","11212","5625","KINGS" 
"CONVENIENT MARKET DELI",-77.701523,43.179127,"1726 Long Pond Rd","","Rochester","NY","14606","4056","MONROE" 
"BILL BROS MARKET III",-76.092903,42.596275,"1 E Main St","","McGraw","NY","13101","9544","CORTLAND" 
"A & A Grocery Store Inc",-73.915047,40.701687,"198 Wyckoff Ave","","Brooklyn","NY","11237","5327","KINGS" 
"RAVINDER INC - CITGO",-74.405922,41.453014,"210 Wickham Ave","","Middletown","NY","10940","3801","ORANGE" 
"FOODTOWN 603",-73.918427,40.629494,"1958 Ralph Ave","1966K Food Corp/Psk Supermarkets Inc","Brooklyn","NY","11234","5302","KINGS" 
"Great Ocean Seafood Inc",-77.598061,43.17001,"658 North St","Unit B","Rochester","NY","14621","4934","MONROE" 
"EAST FERRY CLOVER FARMS",-78.848251,42.91478,"436 E Ferry St","","Buffalo","NY","14208","1501","ERIE" 
"UPPER FALLS MARKET",-77.604187,43.171455,"524 Upper Falls Blvd","","Rochester","NY","14605","2111","MONROE" 
"Hernandez Grocery II",-73.89093,40.871708,"2890 Jerome Ave","","Bronx","NY","10468","1603","BRONX" 
"DOLLAR GENERAL 6437",-76.240517,43.460182,"3391 Main St","","Mexico","NY","13114","","OSWEGO" 
"DOLLAR GENERAL 7325",-74.318962,44.847656,"3321 State Route 11","","Malone","NY","12953","4713","FRANKLIN" 
"DOLLAR GENERAL 10325",-76.190163,43.089874,"602 LIVERPOOL RD","","LIVERPOOL","NY","13088","","ONONDAGA" 
"El Amigo Grocery",-74.085609,40.614544,"487 Vanderbilt Ave","","Staten Island","NY","10304","3520","RICHMOND" 
"Joseph's Food Corp",-73.921188,40.862965,"248 Nagle Ave","","New York","NY","10034","3566","NEW YORK" 
"MIDTOWN GROCERY STORE",-73.69062,42.728806,"71 Congress St","","Troy","NY","12180","4109","RENSSELAER" 
"ALDI 41",-76.219414,43.129749,"7421 Oswego Rd","","Liverpool","NY","13090","3309","ONONDAGA" 
"De La Cruz Deli Grocery",-73.91259,40.807205,"694 E 141 St","AKA 696 E 141 St","Bronx","NY","10454","2431","BRONX" 
"Welcome to New York  Gourmet Deli Corp",-73.948715,40.808628,"2082 Adam Clayton Powell Jr Blvd","","New York","NY","10027","4932","NEW YORK" 
"Adnader Inc",-73.952835,40.807529,"218 Saint Nicholas Ave","","New York","NY","10027","6118","NEW YORK" 
"DOLSON AVE GETTY",-74.422127,41.436394,"24 Dolson Ave","","Middletown","NY","10940","","ORANGE" 
"Haverstraw Meat Corp/Ideal Food Basket",-73.982635,41.199669,"210 Route 9W","","Haverstraw","NY","10927","1042","ROCKLAND" 
"NEIGHBORHOOD MINI MKT & GROCERY INC",-77.61953,43.142391,"675 Plymouth Ave S","","Rochester","NY","14608","2732","MONROE" 
"DOLLAR TREE 0440",-79.302803,42.099068,"330 E Fairmount Ave","","Lakewood","NY","14750","2006","CHAUTAUQUA" 
"DOLLAR TREE 0962",-78.78054,42.906044,"130 Thruway Plaza Dr","","Cheektowaga","NY","14225","4940","ERIE" 
"DOLLAR TREE 1003",-78.75341,42.826675,"952 Union Rd","","West Seneca","NY","14224","3438","ERIE" 
"DOLLAR TREE 1051",-74.719765,41.784027,"1939 State Route 52","","Liberty","NY","12754","8313","SULLIVAN" 
"DOLLAR TREE 1315",-78.825905,42.719559,"141 Pine St","","Hamburg","NY","14075","5155","ERIE" 
"DOLLAR TREE 1395",-76.548141,42.948238,"217 Grant Ave","Ste 35","Auburn","NY","13021","1446","CAYUGA" 
"DOLLAR TREE 1399",-73.591187,41.516693,"3101 Route 22","","Patterson","NY","12563","2342","PUTNAM" 
"DOLLAR TREE 1405",-76.012321,42.094501,"2437 Vestal Pkwy E","","Vestal","NY","13850","2018","BROOME" 
"DOLLAR TREE 1415",-76.878784,42.1544,"830 COUNTY ROUTE 64","","ELMIRA","NY","14903","","CHEMUNG" 
"DOLLAR TREE 1423",-78.754082,42.91964,"3859 UNION RD","Unit 1","CHEEKTOWAGA","NY","14225","","ERIE" 
"DOLLAR TREE 1424",-78.822296,42.997185,"1551 Niagara Falls Blvd","Ste 1","Buffalo","NY","14228","2703","ERIE" 
"DOLLAR TREE 1687",-74.565201,42.159546,"88-28 Dunning Rd","","Middletown","NY","10940","2267","ORANGE" 
"DOLLAR TREE 2105",-73.98896,41.971836,"1379 Ulster Ave","","Kingston","NY","12401","1514","ULSTER" 
"K K FOODLAND",-75.533585,43.079845,"5343 E Seneca St","","Vernon","NY","13476","","ONEIDA" 
"N ALLEN NEWS DAILY",-73.786285,42.671867,"159 N Allen St","","Albany","NY","12206","1703","ALBANY" 
"Suffolk Food Corp",-73.203369,40.792187,"32 Wheeler Rd","","Central Islip","NY","11722","2158","SUFFOLK" 
"NICE N EASY 3990",-75.622116,43.968048,"90 Bridge St","","Carthage","NY","13619","1367","JEFFERSON" 
"NICE N EASY 3980",-74.978905,44.156013,"4228 NYS ROUTE 3","","STAR LAKE","NY","13690","","ST LAWRENCE" 
"NICE N EASY 3989",-75.623199,43.096008,"4835 State Route 365","","Oneida","NY","13421","3669","MADISON" 
"LA MARKETITA PAULINO INC.",-73.891693,40.830482,"1286 Southern Blvd","","Bronx","NY","10459","1536","BRONX" 
"Boro Park Health Food Center Inc",-73.993912,40.63327,"5201 13th Ave","","Brooklyn","NY","11219","3811","KINGS" 
"SAN MIGUEL GROCERY STORE",-73.864243,40.871338,"774 Burke Ave","","Bronx","NY","10467","6634","BRONX" 
"RITE AID 7826",-73.906815,40.876961,"52-37 Broadway","","Bronx","NY","10463","5201","BRONX" 
"RITE AID 4733",-73.991455,40.685394,"182 Smith St","","Brooklyn","NY","11201","6409","KINGS" 
"RITE AID 7767",-73.942924,40.78582,"1951 1st Ave","","New York","NY","10029","6419","NEW YORK" 
"BROADWAY FARM OF NEWBURGH INC",-74.013794,41.500164,"151 Broadway","","Newburgh","NY","12550","5518","ORANGE" 
"111 Food Market Corp",-73.85537,40.750957,"11101 41st Ave","","Corona","NY","11368","2621","QUEENS" 
"AMANI FOOD MARKET",-78.846619,42.826801,"19 Wasson Ave","","Lackawanna","NY","14218","1016","ERIE" 
"LIPMAN'S KOSHER MARKET",-77.572517,43.133633,"1482 Monroe Ave","","Rochester","NY","14618","1008","MONROE" 
"BAILLY'S FOOD MART",-78.837616,43.128277,"3821 Lockport Rd","","Sanborn","NY","14132","9106","NIAGARA" 
"Walmart 3441",-73.764725,41.033379,"275 Main St","","White Plains","NY","10601","2410","WESTCHESTER" 
"Walmart Supercenter 5497",-75.841568,44.038448,"25737 US Route 11","","Evans Mills","NY","13637","3221","JEFFERSON" 
"Walmart SUPERCENTER 5498",-75.475769,43.777611,"7155 State Route 12","","Lowville","NY","13367","2829","LEWIS" 
"SENSHINE MARKET",-75.198036,43.090099,"600 Culver Ave","Ste 1","Utica","NY","13501","2015","ONEIDA" 
"GOOD HARVEST COOPERATIVE, INC",-73.990746,40.726715,"58 E 4th St","Frnt A","New York","NY","10003","8914","NEW YORK" 
"Farmers Deli Grocery",-73.761932,40.697323,"11425 Farmers Blvd","","Saint Albans","NY","11412","2739","QUEENS" 
"WALGREEN 09585",-77.701271,43.169407,"430 Spencerport Rd","","Rochester","NY","14606","5219","MONROE" 
"H & F FRUIT CO INC",-73.953804,40.787663,"1391 MADISON AVE","","NEW YORK","NY","10029","","NEW YORK" 
"K H GROCERY",-73.990776,40.660484,"672 6th Ave","","Brooklyn","NY","11215","6301","KINGS" 
"National NR Corp",-73.896812,40.821186,"944 Intervale Ave","Store #7","Bronx","NY","10459","","BRONX" 
"G & C PLANTS & THINGS",-77.654167,43.158859,"381 Glide St","","Rochester","NY","14611","1138","MONROE" 
"Stingray of Brooklyn Fish Market Corp",-73.916214,40.659012,"375 E 98th St","","Brooklyn","NY","11212","4341","KINGS" 
"RITE AID 0424",-73.881638,40.882286,"3480 Jerome Ave","","Bronx","NY","10467","1002","BRONX" 
"RITE AID 1323",-73.790604,41.028172,"383 N Central Ave","","Hartsdale","NY","10530","1811","WESTCHESTER" 
"RITE AID 4607",-73.854706,40.89817,"4389 White Plains Rd","","Bronx","NY","10466","1414","BRONX" 
"RITE AID 1845",-73.861603,40.885906,"3901 White Plains Rd","","Bronx","NY","10466","3017","BRONX" 
"RITE AID 3432",-73.729538,41.206654,"55 S Moger Ave #59","","Mount Kisco","NY","10549","2211","WESTCHESTER" 
"PRICE CHOPPER  130",-76.052475,42.103935,"911 North St","","Endicott","NY","13760","","BROOME" 
"D'AGOSTINO SUPERMARKETS INC 6-80",-73.950066,40.772007,"1507 York Ave # 6","","New York","NY","10075","1002","NEW YORK" 
"Joebest African Carribean American Market",-73.690567,40.703381,"180 Meacham Ave","","Elmont","NY","11003","2632","NASSAU" 
"Zibber Corp",-73.878036,40.756302,"8920 Northern Blvd","","Jackson Heights","NY","11372","1685","QUEENS" 
"MICHAEL'S MEAT MARKET",-73.994133,40.75631,"516 9th Ave","Frnt A","New York","NY","10018","2830","NEW YORK" 
"DOLLAR GENERAL 10256",-78.504044,42.997738,"12968 Main Rd","","Akron","NY","14001","9777","ERIE" 
"DOLLAR GENERAL 06318",-77.842789,42.964252,"3337 Caledonia Avon Rd","","Caledonia","NY","14423","9793","LIVINGSTON" 
"DOLLAR GENERAL 10186",-77.658798,42.326546,"187 Main St","","Hornell","NY","14843","","STEUBEN" 
"Seatide Gourmet Inc",-73.917702,40.619492,"5914 Avenue N","","Brooklyn","NY","11234","4130","KINGS" 
"Mando Food Corp",-74.021904,40.631374,"7212 5th Ave","","Brooklyn","NY","11209","2616","KINGS" 
"DOLLAR TREE 0542",-78.69693,43.144238,"5770 S Transit Rd","Ste 1","Lockport","NY","14094","7018","NIAGARA" 
"DOLLAR TREE 0604",-77.637138,43.086628,"3333 W HENRIETTA RD","","ROCHESTER","NY","14623","","MONROE" 
"DOLLAR TREE 1408",-75.460335,43.211163,"205 Erie Blvd W","","Rome","NY","13440","6500","ONEIDA" 
"DOLLAR TREE 1527",-77.686401,43.132298,"2004 Chili Ave","","Rochester","NY","14624","3424","MONROE" 
"DOLLAR TREE 2505",-73.636078,43.299995,"110 Main St","Ste 1","South Glens Falls","NY","12803","4829","SARATOGA" 
"DOLLAR TREE 3096",-73.829254,40.869514,"2047 Bartow Ave","","Bronx","NY","10475","4613","BRONX" 
"PINE RIDGE GROCERY",-75.501434,42.302391,"4086 State Highway 206","","Bainbridge","NY","13733","3205","CHENANGO" 
"RITE AID 2541",-73.896332,40.91898,"420 S Broadway","","Yonkers","NY","10705","2301","WESTCHESTER" 
"RITE AID 4790",-73.825211,40.879501,"691 Co OP City Blvd","Unit L","Bronx","NY","10475","1673","BRONX" 
"RITE AID 4667",-73.903198,40.862789,"49 W Fordham Rd","","Bronx","NY","10468","5322","BRONX" 
"SAM'S MINI MART",-77.635994,43.141048,"462 Genesee St","","Rochester","NY","14611","3650","MONROE" 
"Chung Chou City I Inc",-73.995934,40.718925,"218-220 Grand St","","New York","NY","10013","4245","NEW YORK" 
"Stewarts Shop 280",-74.273575,43.751152,"State Route 28 & State St","","Indian Lake","NY","12842","","HAMILTON" 
"STEWART'S SHOP 227",-73.982262,44.281643,"2711 Main St","","Lake Placid","NY","12946","3313","ESSEX" 
"Stewarts Shop 308",-73.972755,43.682018,"3196 State Route 28","","North Creek","NY","12853","2101","WARREN" 
"Stewarts Shop 353",-74.678108,43.804451,"State Route 28","","Long Lake","NY","12847","","HAMILTON" 
"MONHAGEN AVE DELI",-74.431412,41.447979,"95 Monhagen Ave","","Middletown","NY","10940","6131","ORANGE" 
"Mas  Convenience And Deli Corp",-73.802773,40.70771,"8793 Parsons Blvd","","Jamaica","NY","11432","3839","QUEENS" 
"Flushing Market Inc",-73.821648,40.764854,"14450 Northern Blvd","","Flushing","NY","11354","4231","QUEENS" 
"Hailes Mini Market",-77.592918,43.173038,"395 Portland Ave","","Rochester","NY","14605","1565","MONROE" 
"Mother Food Corp/Foodtown",-73.786644,40.70792,"17309 Jamaica Ave","","Jamaica","NY","11432","5595","QUEENS" 
"MARCY GROCERY INC",-73.955162,40.704483,"287 Marcy Ave","","Brooklyn","NY","11211","8154","KINGS" 
"MONTICELLO GREEN MARKET",-74.696785,41.654697,"39 Forestburgh Rd","","Monticello","NY","12701","1860","SULLIVAN" 
"TOP NEWS AND GROCERY",-73.998917,40.625156,"6422 14th Ave","","Brooklyn","NY","11219","5314","KINGS" 
"PUTNAM MEAT CORP",-73.547195,41.460045,"74 Fairfield Dr","","Patterson","NY","12563","2154","PUTNAM" 
"Atlixco Bakery & Deli Inc.",-74.078262,40.635483,"1012 St Pauls Ave","","Staten Island","NY","10301","3218","RICHMOND" 
"Los Brother Grocery Corp",-73.947685,40.659603,"608 New York Ave","Aka 388 Midwood St","Brooklyn","NY","11203","1507","KINGS" 
"AMIN BUSINESS INC",-74.073318,40.640156,"206 Bay St","","Staten Island","NY","10301","3202","RICHMOND" 
"Kings Convenience Corp",-73.958412,40.608665,"1426 Kings Hwy","","Brooklyn","NY","11229","","KINGS" 
"LISBETH FOOD CORP",-73.869987,40.827133,"1702 Watson Ave","","Bronx","NY","10472","5408","BRONX" 
"Juncalito Abajo Meat Corp",-73.881805,40.647697,"1380 Pennsylvania Ave","","Brooklyn","NY","11239","2103","KINGS" 
"T & H Markets Inc",-73.820404,40.824612,"3822 E Tremont Ave","","Bronx","NY","10465","2435","BRONX" 
"Gitto & Sons Health Food Inc",-73.91716,40.64159,"38 Brooklyn Terminal Market","","Brooklyn","NY","11236","1510","KINGS" 
"530 Gelston Deli & Grocery",-74.028419,40.617374,"530 92nd St","","Brooklyn","NY","11209","6414","KINGS" 
"CAMERON'S 24 HOUR STORE",-78.877068,42.92588,"1054 Elmwood Ave","","Buffalo","NY","14222","1202","ERIE" 
"Sea Breeze Fish Market Inc",-73.993507,40.757309,"541 9th Ave","","New York","NY","10018","1304","NEW YORK" 
"WESTERN BEEF RETAIL, INC 12",-74.157249,40.626072,"2040 Forest Ave","","Staten Island","NY","10303","1755","RICHMOND" 
"Kawran Bazar Inc",-73.793953,40.71032,"8754 168th Pl","","Jamaica","NY","11432","3630","QUEENS" 
"TARGET STORE 2024",-74.153557,41.316364,"128 Bailey Farm Rd","Ste 1","Monroe","NY","10950","4951","ORANGE" 
"TARGET STORE 2038",-77.451691,43.209896,"1050 Ridge Rd","","Webster","NY","14580","2908","MONROE" 
"D'AGOSTINO SUPERMARKETS INC 11-25",-73.982002,40.740341,"341 3rd Ave","","New York","NY","10010","2434","NEW YORK" 
"New Carolina Grocery Corp",-73.97834,40.720577,"19 Avenue D","","New York","NY","10009","7844","NEW YORK" 
"Grace Farmers Market",-73.910568,40.669189,"437 Rockaway Ave","","Brooklyn","NY","11212","5637","KINGS" 
"KEITHS CITGO & SON",-78.044991,42.566162,"6963 State Route 19A","","Portageville","NY","14536","","WYOMING" 
"PRICE CHOPPER 218",-74.922798,42.267548,"3 Main St","","Delhi","NY","13753","","DELAWARE" 
"FLATBUSH GROCERY STORE",-73.954651,40.63945,"1262 Flatbush Ave","","Brooklyn","NY","11226","7621","KINGS" 
"C & F Unique Corp",-73.901283,40.831478,"635 E 169th St","Frnt 1","Bronx","NY","10456","2682","BRONX" 
"VALLEY FARMS",-74.023361,41.476822,"204 Quassaick Ave","","New Windsor","NY","12553","7138","ORANGE" 
"PRICE CHOPPER 215",-75.410149,42.299656,"165 Delaware Ave","","Sidney","NY","13838","1349","DELAWARE" 
"PRICE CHOPPER 216",-76.271271,42.099262,"42 W Main St","","Owego","NY","13827","1578","TIOGA" 
"Ochel Food Corp",-74.137833,40.611923,"2234 Victory Blvd","","Staten Island","NY","10314","6624","RICHMOND" 
"DAVE'S MEAT MARKET",-76.760124,43.067421,"1578 NORTH MAIN STREET","","SAVANNAH","NY","13146","","WAYNE" 
"DHY Sonamoo LLC",-73.915604,40.655575,"9530 Church Ave","","Brooklyn","NY","11212","2434","KINGS" 
"Brother's Candy & Grocery Store Inc",-73.979301,40.729897,"542 E 14 St","","New York","NY","10009","","NEW YORK" 
"SORRENTINO'S DELICATESSEN & MARKET",-73.638878,43.303097,"40 Main St","","South Glens Falls","NY","12803","4731","SARATOGA" 
"Los Paisanos Grocery Deli & Meat",-73.891006,40.932087,"60 Maple St","","Yonkers","NY","10701","3952","WESTCHESTER" 
"Goldberger's Food Inc",-73.983444,40.619797,"1973 60th St","","Brooklyn","NY","11204","2346","KINGS" 
"COUNTRY FOOD & CONVENIENCE STORE",-74.185402,41.560852,"35 E Main St","","Walden","NY","12586","1859","ORANGE" 
"Straight Path Deli Grocery Inc",-73.93927,40.81646,"561 Malcolm X Blvd","","New York","NY","10037","1742","NEW YORK" 
"Alpine 53rd Street Inc dba Alpine 2",-73.994102,40.640667,"4407 Fort Hamilton Pkwy","","Brooklyn","NY","11219","1950","KINGS" 
"7-ELEVEN",-78.985718,43.075089,"6802 Buffalo Ave","","Niagara Falls","NY","14304","3936","NIAGARA" 
"Pinnacle Pharmacy Inc",-73.859093,40.736351,"5908 99th St","","Corona","NY","11368","4304","QUEENS" 
"GRAND FRESH FRUIT & VEGETABLE INC",-73.897591,40.724686,"6636 Grand Ave","","Maspeth","NY","11378","2531","QUEENS" 
"Simreen Packing Enterprises Inc",-73.887367,40.827003,"1260 Westchester Ave","","Bronx","NY","10459","2611","BRONX" 
"179 Deli LTD",-73.783295,40.712704,"179-46 Hillside Ave","","Jamaica","NY","11432","4653","QUEENS" 
"Al-Noor Halal Meat Inc",-73.892738,40.74894,"3562 73rd St","","Jackson Heights","NY","11372","4153","QUEENS" 
"Rite Aid 10595",-73.783585,40.734161,"69-62 188th St","","Fresh Meadows","NY","11365","3771","QUEENS" 
"Triple Food Corp",-73.862633,40.749889,"3909 103rd St","","Corona","NY","11368","2322","QUEENS" 
"La Confianza #2 Inc",-73.013702,40.762604,"179 S Ocean Ave","","Patchogue","NY","11772","3718","SUFFOLK" 
"Far Rockaway Drugs Inc",-73.752129,40.59499,"1727 Seagirt Blvd","","Far Rockaway","NY","11691","4513","QUEENS" 
"K&S DELI GROCERY",-73.769562,42.639221,"190 2nd Ave","","Albany","NY","12202","1221","ALBANY" 
"Teo Food Corp",-73.916473,40.833912,"206 E 167th St","","Bronx","NY","10456","4004","BRONX" 
"My Deli Grocery Inc",-73.925278,40.86665,"670 Academy St","","New York","NY","10034","4229","NEW YORK" 
"Pomegranate",-73.964317,40.620438,"1507 Coney Island Ave","","Brooklyn","NY","11230","4713","KINGS" 
"Fleischmann's Supermarket",-74.528404,42.156551,"1050 Main St","","Fleischmanns","NY","12430","9998","DELAWARE" 
"PARKCHESTER FISH MARKET",-73.860619,40.832676,"80A Hugh J Grant Cir","","Bronx","NY","10472","5004","BRONX" 
"MARCY FRUIT MARKET CORP",-73.95504,40.704205,"308 Marcy Ave","","Brooklyn","NY","11211","8151","KINGS" 
"Trader Joe's 540",-73.988289,40.7337,"142 E 14th St","Union Square Grocery","New York","NY","10003","4170","NEW YORK" 
"BLOOMINGBURG GROCERY CORP",-74.437775,41.554012,"63 Main St","","Bloomingburg","NY","12721","4631","SULLIVAN" 
"HANNAFORD FOOD & DRUG 380",-73.637558,43.286816,"27-41 Gansevoort Rd","","S Glens Falls","NY","12803","5259","SARATOGA" 
"DOLLAR GENERAL 10184",-78.941254,42.586323,"10855 Gowanda State Rd","","North Collins","NY","14111","9751","ERIE" 
"BEST MEATS INC",-73.959465,40.653809,"777 Flatbush Ave","","Brooklyn","NY","11226","1901","KINGS" 
"NATALIE 3397 GROCERY CORP",-73.870171,40.684238,"3397 Fulton St","","Brooklyn","NY","11208","2009","KINGS" 
"J & E Meat Corp",-73.593018,40.701176,"565 Uniondale Ave","","Uniondale","NY","11553","2236","NASSAU" 
"VLIET MART CORP",-73.715759,42.777832,"196 Vliet Blvd","","Cohoes","NY","12047","1816","ALBANY" 
"Amer Brothers International Inc",-73.877357,40.682133,"3180 Fulton St","","Brooklyn","NY","11208","1936","KINGS" 
"Chichi Grocery Corp.",-73.896545,40.82103,"935 E 163rd St","Frnt 1","Bronx","NY","10459","4204","BRONX" 
"ZW Deli & Grocery Corp",-73.938156,40.796421,"2240 2nd Ave","","New York","NY","10029","2202","NEW YORK" 
"Bahrain Flowers International Inc",-73.940765,40.788731,"2029 1st Ave","","New York","NY","10029","5009","NEW YORK" 
"6th Ave Grocery Deli of Brooklyn Corp",-74.02153,40.624928,"7901 6th Ave","","Brooklyn","NY","11209","4005","KINGS" 
"Marbelly Food Center",-73.920387,40.649185,"1061 Ralph Ave","","Brooklyn","NY","11236","1241","KINGS" 
"TOPS 587",-75.460335,43.211163,"217 Erie Blvd W","","Rome","NY","13440","6500","ONEIDA" 
"DOLLAR TREE 1929",-74.361099,43.014999,"215 N Comrie Ave","","Johnstown","NY","12095","1501","FULTON" 
"COLUMBUS FOODS INC",-73.97802,40.778358,"289 Columbus Ave","","New York","NY","10023","2303","NEW YORK" 
"WALGREENS 01918",-73.941444,40.700527,"755 Broadway","","Brooklyn","NY","11206","5320","KINGS" 
"WALGREENS 09758",-77.561661,43.203648,"2100 E Ridge Rd","","Irondequoit","NY","14622","2641","MONROE" 
"ALDI 33",-76.779243,42.918423,"2055 ROUTES 5 & 20","","SENECA FALLS","NY","13148","","SENECA" 
"Rite Aid 1910",-78.858063,42.98077,"2047 Sheridan Dr","","Buffalo","NY","14223","1432","ERIE" 
"RITE AID 686",-77.714935,42.566605,"9519 Foster Wheeler Rd","","Dansville","NY","14437","9259","LIVINGSTON" 
"UNITED COMMUNITY CENTERS-FM",-73.885452,40.665245,"679 New Lots Ave","","Brooklyn","NY","11207","6038","KINGS" 
"RITE AID 3336",-74.187614,42.943321,"149 Market St","","Amsterdam","NY","12010","3626","MONTGOMERY" 
"RITE AID 581",-73.803764,43.079056,"90 West Ave","","Saratoga Springs","NY","12866","6003","SARATOGA" 
"RITE AID 1617",-73.912071,41.686691,"238 Hooker Ave","","Poughkeepsie","NY","12603","3326","DUTCHESS" 
"TARGET 2006",-74.233887,40.527966,"2900 Veterans Rd W","","Staten Island","NY","10309","2502","RICHMOND" 
"SUNBEAM OF NEW YORK INC",-74.158356,40.636776,"2950 Richmond Ter","","Staten Island","NY","10303","2317","RICHMOND" 
"TARGET 2076",-74.061752,41.503914,"50 ROUTE 17 K","","NEWBURGH","NY","12550","","ORANGE" 
"RITE AID 1090",-73.987335,41.94136,"351 Flatbush Ave","","Kingston","NY","12401","2743","ULSTER" 
"AL-NOOR GROCERY",-78.863533,42.947796,"1200 Hertel Ave","","Buffalo","NY","14216","2747","ERIE" 
"ARROW MART",-78.145203,42.202785,"2 Pennsylvania Ave","","Friendship","NY","14739","8770","ALLEGANY" 
"Chivo Meat Corp/ Ideal Food Basket",-73.963493,40.676212,"720 Washington Ave","","Brooklyn","NY","11238","4008","KINGS" 
"Mega Discount Corp",-73.879692,40.828598,"1509 Westchester Ave","","Bronx","NY","10472","2906","BRONX" 
"Brighton 99 Cents Plus Inc.",-73.962051,40.577518,"509 Brighton Beach Ave","","Brooklyn","NY","11235","6403","KINGS" 
"CLEAN FOOD SERVICES INC",-74.000809,40.738186,"229 W 13th St","","New York","NY","10011","7701","NEW YORK" 
"CVS PHARMACY INC 232",-77.733109,42.910061,"277 E Main St","","Avon","NY","14414","1423","LIVINGSTON" 
"CVS PHARMACY INC 747",-78.823845,42.79673,"3734 S Park Ave","","Buffalo","NY","14219","1802","ERIE" 
"INTERNATIONAL BEVERAGE",-77.661781,43.164719,"1372 Lyell Ave","","Rochester","NY","14606","","MONROE" 
"CAYUGA FINEST MARKET INC",-76.409676,43.325352,"524 Cayuga St","","Fulton","NY","13069","1836","OSWEGO" 
"DOLLAR GENERAL 8368",-78.696861,42.875416,"4871 Transit Rd","","Depew","NY","14043","4776","ERIE" 
"581 Myrtle Ave. Food Inc",-73.960526,40.694035,"596 Myrtle Ave","","Brooklyn","NY","11205","1412","KINGS" 
"B-A Deli Mart Inc",-73.846375,40.87048,"1360 E Gun Hill Rd","","Bronx","NY","10469","3011","BRONX" 
"SURMA POULTRY INC.",-73.907906,40.669552,"138 Watkins St","","Brooklyn","NY","11212","6713","KINGS" 
"Chung's Market Inc",-73.951439,40.680443,"1228A Fulton St","","Brooklyn","NY","11216","2003","KINGS" 
"MNS Deli Corp",-73.4123,40.856464,"1044 New York Ave","Unit 2","Huntington Station","NY","11746","1206","SUFFOLK" 
"AMERICAN DESI BAZAAR  DELI INC",-73.892525,40.758492,"7510 31st Ave","","East Elmhurst","NY","11370","1812","QUEENS" 
"RAY'S BAKERY AND RESTAURANT INC",-73.826469,40.700829,"12325 Jamaica Ave","","Richmond Hill","NY","11418","2640","QUEENS" 
"F & K Food Center Corp",-73.891525,40.870014,"2837 Grand Concourse","2837-2839 Grand Concourse","Bronx","NY","10468","1901","BRONX" 
"S & A Wholesale Fruit & Vegetable Inc",-73.955269,40.587433,"2608 E 14th St","","Brooklyn","NY","11235","3916","KINGS" 
"Sonny's Grocery & Deli",-73.991013,40.765877,"767 10th Ave","","New York","NY","10019","5024","NEW YORK" 
"SMW Deli & Grocery L.L.C",-73.775032,41.037872,"71 Ferris Ave","","White Plains","NY","10603","3405","WESTCHESTER" 
"New York Mini Market Inc",-77.616508,43.186405,"274 Norton St","","Rochester","NY","14621","3138","MONROE" 
"DANDY MINI MART 52",-76.986649,42.125687,"11979 E Corning Rd","","Corning","NY","14830","3662","STEUBEN" 
"Vista Hermosa Grocery & Deli",-73.867043,40.831654,"1782 Westchester Ave","Frnt A","Bronx","NY","10472","3012","BRONX" 
"Teams Market Inc/Key Food",-73.909927,40.848042,"1791 Walton Ave","","Bronx","NY","10453","8138","BRONX" 
"TARGET 1798",-73.908218,40.873653,"40 W 225th St","","Bronx","NY","10463","7016","BRONX" 
"TARGET 1849",-73.977669,40.684399,"139 FLATBUSH AVE","","BROOKLYN","NY","11217","","KINGS" 
"TARGET 1866",-73.420319,40.750893,"100 Willow Park Ctr","","Farmingdale","NY","11735","1001","NASSAU" 
"TARGET 1915",-73.772354,42.754696,"675 Troy Schenectady Rd","Ste 1","Latham","NY","12110","2493","ALBANY" 
"HANZLIAN'S  HOMEMADE SAUSAGE AND DELI",-78.796165,42.919193,"2351 Genesee St","","Cheektowaga","NY","14225","2839","ERIE" 
"Dean Deli Grocery Corp",-73.955338,40.677513,"1050 Dean St","","Brooklyn","NY","11216","2908","KINGS" 
"TOPS 569",-75.520226,42.53149,"54 E Main St","","Norwich","NY","13815","","CHENANGO" 
"A & M MEAT CORP/ALEXS MEAT",-73.978127,40.643394,"205 Church Ave","","Brooklyn","NY","11218","3919","KINGS" 
"WATKINS GLEN FARMERS MARKET - FM",-76.871101,42.380547,"200 5th St","","Watkins Glen","NY","14891","","SCHUYLER" 
"TOPS 568",-74.963051,42.649834,"5 Commons Dr","","Cooperstown","NY","13326","9522","OTSEGO" 
"Uncle Giuseppe's of Port Washington Inc",-73.679962,40.817749,"364 Port Washington Blvd","","Port Washington","NY","11050","4212","NASSAU" 
"Mejia Mini Market Corp",-73.896919,40.816669,"1010 Longwood Ave","","Bronx","NY","10459","5106","BRONX" 
"PRICE CHOPPER 220",-73.442879,44.978416,"860 ROUTE 11","","CHAMPLAIN","NY","12919","","CLINTON" 
"LUIS DELI GROCERY",-73.888268,40.834766,"1569 Hoe Ave","","Bronx","NY","10460","5607","BRONX" 
"EDEN FOOD MARKET INC",-73.985794,40.641182,"3802 13th Ave","","Brooklyn","NY","11218","3604","KINGS" 
"D.W. National Bakery Inc",-73.864685,40.86552,"767 Allerton Ave","","Bronx","NY","10467","8818","BRONX" 
"Almonte Lands Food Corp/Key Food",-73.9254,40.619068,"5101 Avenue N","5101-5123 Ave N","Brooklyn","NY","11234","3807","KINGS" 
"David & Sons Food Corp",-73.959587,40.691597,"241 Taaffe Pl","","Brooklyn","NY","11205","4332","KINGS" 
"1705 Deli Grocery Inc",-73.945816,40.792831,"1705 Lexington Ave","","New York","NY","10029","3910","NEW YORK" 
"Happy Days Grocery Food Corp",-73.884094,40.867912,"379 Bedford Park Blvd","","Bronx","NY","10458","2414","BRONX" 
"WILSON'S LAKESIDE MARKET",-78.826103,43.308857,"337 Lake St","","Wilson","NY","14172","9501","NIAGARA" 
"M & N Grocers Inc",-73.891624,40.748058,"3727 74th St","","Jackson Heights","NY","11372","6337","QUEENS" 
"294 Uniondale Food Corp",-73.592468,40.708942,"294 Uniondale Ave","","Uniondale","NY","11553","1644","NASSAU" 
"TARGET 1083",-73.960365,41.099392,"4120 Palisades Center Dr","","West Nyack","NY","10994","6801","ROCKLAND" 
"TARGET 1139",-73.59951,40.740967,"999 Corporate Dr","","Westbury","NY","11590","6614","NASSAU" 
"TARGET 1150",-73.833084,40.7817,"13505 20th Ave","","Flushing","NY","11356","2446","QUEENS" 
"Love Express Deli Corp",-73.930939,40.671513,"214 Utica Ave","","Brooklyn","NY","11213","2939","KINGS" 
"ZACK MINI MART",-77.628952,43.143349,"580 Jefferson Ave","","Rochester","NY","14611","3550","MONROE" 
"LITTLE BROOKLYN MINI MKT",-77.607895,43.180294,"848 Joseph Ave","","Rochester","NY","14621","4702","MONROE" 
"FAIRWAY RED HOOK LLC",-74.016884,40.673985,"480 Van Brunt St","","Brooklyn","NY","11231","1014","KINGS" 
"BROOK MI PUEBLO MEXICAN DELI CORP",-73.919098,40.807911,"245 Brook Ave","Store 8 & 9","Bronx","NY","10454","","BRONX" 
"UNIONMART INC",-78.754234,42.855137,"3502 Clinton St","","West Seneca","NY","14224","1401","ERIE" 
"WALGREENS 09799",-75.276604,43.054607,"49 Kellogg Rd","","New Hartford","NY","13413","2849","ONEIDA" 
"DOLLAR GENERAL 10311",-78.904526,42.95116,"827 Tonawanda St","","Buffalo","NY","14207","1449","ERIE" 
"DOLLAR GENERAL 10433",-78.762291,42.883942,"2920 William St","","Cheektowaga","NY","14227","1916","ERIE" 
"RITE AID 7808",-73.937752,40.848186,"4188 Broadway","","New York","NY","10033","3736","NEW YORK" 
"Altagracia Deli & Grocery Store No.2 Inc",-73.895996,40.860954,"269 E 188th St","","Bronx","NY","10458","5301","BRONX" 
"JANG TUH GROCERY",-73.757973,42.746471,"462 Troy Schenectady Rd","","Latham","NY","12110","3231","ALBANY" 
"Quentin Market Corp",-73.938148,40.613682,"3404 Quentin Rd","","Brooklyn","NY","11234","4229","KINGS" 
"R.P. Deli Grocery",-73.891403,40.823128,"945 Aldus St","Frnt 2","Bronx","NY","10459","3512","BRONX" 
"Almo Dollar Inc",-73.904213,40.849007,"239 E Tremont Ave","","Bronx","NY","10457","5303","BRONX" 
"WESTERN BEEF RETAIL, INC 14",-73.707909,40.701221,"1717 OLD DUTCH BWAY","","ELMONT","NY","11003","","NASSAU" 
"WILD BY NATURE 203",-72.54921,40.866196,"260 W Montauk Hwy","","Hampton Bays","NY","11946","3510","SUFFOLK" 
"Bagh Deli Grocery Inc",-73.828217,40.693905,"11822 Atlantic Ave","","South Richmond Hill","NY","11419","1252","QUEENS" 
"TUSCANY DELI & MEATS INC",-79.309235,42.450005,"450 E Main St","","Fredonia","NY","14063","1450","CHAUTAUQUA" 
"Eden Farm II Inc",-73.735573,40.803925,"637 Middle Neck Rd","","Great Neck","NY","11023","1216","NASSAU" 
"VRANKEN DELI & GROCERY INC",-73.9179,42.834236,"2337 Van Vranken Ave","","Schenectady","NY","12308","1024","SCHENECTADY" 
"CREMOSA MARKET",-73.587845,40.757061,"230 POST AVE","B","Westbury","NY","11590","","NASSAU" 
"44 AVENUE POULTRY CORP",-73.861809,40.746788,"10209 44th Ave","","Corona","NY","11368","2430","QUEENS" 
"S & K CONVENIENT MART INC",-73.922592,40.771309,"2501 Astoria Blvd","","Astoria","NY","11102","5300","QUEENS" 
"THE TOWERS MARKET",-77.619499,43.190235,"200 Seth Green Dr","Apt 139","Rochester","NY","14621","2110","MONROE" 
"Sayes Deli Grocery Corp",-73.887329,40.829548,"1309 W Farms Rd","","Bronx","NY","10459","1605","BRONX" 
"MALKO KARKANNI BROS INC",-73.993736,40.690033,"174 Atlantic Ave","","Brooklyn","NY","11201","5604","KINGS" 
"Walmart SUPERCENTER 3607",-78.226807,43.235626,"13858 State Route 31","","Albion","NY","14411","9362","ORLEANS" 
"Walmart SUPERCENTER 2581",-76.274368,43.041035,"5399 W Genesee St","","Camillus","NY","13031","2265","ONONDAGA" 
"HANNAFORD 313",-75.387589,43.042542,"55 Meadow St","","Clinton","NY","13323","1625","ONEIDA" 
"Super K Fish Corp",-73.984451,40.638985,"3914 14th Ave","","Brooklyn","NY","11218","","KINGS" 
"HANNAFORD 364",-73.688705,42.428207,"2967 ROUTE 9","","VALATIE","NY","12184","","COLUMBIA" 
"HANNAFORD 395",-73.571213,43.318913,"3758 Burgoyne Ave","","Hudson Falls","NY","12839","1268","WASHINGTON" 
"HANNAFORD 372",-75.222397,43.090458,"1122 Mohawk St","","Utica","NY","13501","3750","ONEIDA" 
"HANNAFORD 370",-75.277977,43.055058,"50 Kellogg Rd","","New Hartford","NY","13413","2850","ONEIDA" 
"Clarkson Food Corp",-73.921104,40.660557,"1125 Clarkson Ave","","Brooklyn","NY","11212","2728","KINGS" 
"HOOSIC VALLEY SHOP N SAVE",-73.58506,42.907024,"6 Main St","","Schaghticoke","NY","12154","","RENSSELAER" 
"J & L International Food Corp",-73.890976,40.650116,"11120A Flatlands Ave","","Brooklyn","NY","11207","8234","KINGS" 
"H2H DELI & GROCERY INC",-73.974876,40.59684,"249 Avenue U","","Brooklyn","NY","11223","3822","KINGS" 
"LATIN GROCERY LLC",-73.894844,40.823997,"961 E 165th St","","Bronx","NY","10459","3314","BRONX" 
"CIRCLE A FOODS INC",-73.735329,40.624313,"305 Rockaway Tpke","","Lawrence","NY","11559","1120","NASSAU" 
"MOUNTAIN KOSHER FOOD CORP",-74.673775,41.651627,"286 E Broadway","","Monticello","NY","12701","8821","SULLIVAN" 
"LA PLAZA LLC",-73.895523,40.929211,"266 NEW MAIN ST","","YONKERS","NY","10701","","WESTCHESTER" 
"MNL DEVELOPMENT LLC",-73.963463,40.577496,"3070 Brighton 4th St","","Brooklyn","NY","11235","6445","KINGS" 
"OCEANSIDE FOOD EXPRESS INC",-73.648132,40.640396,"230 Atlantic Ave","","Oceanside","NY","11572","2009","NASSAU" 
"New Dorp Deli",-74.112167,40.571743,"308 New Dorp Ln","","Staten Island","NY","10306","3036","RICHMOND" 
"ISIS GROCERY",-73.865807,40.865513,"739 Allerton Ave","","Bronx","NY","10467","8701","BRONX" 
"PARISH MINI MART",-76.119766,43.405018,"2886 E Main St","","Parish","NY","13131","3198","OSWEGO" 
"KOHN'S FRESH FISH, INC",-74.06916,41.109699,"25 Main St","","Monsey","NY","10952","3707","ROCKLAND" 
"ANGE'S FOOD SALES",-78.68399,43.011654,"8325 Clarnew Dr","","East Amherst","NY","14051","1910","ERIE" 
"SAXELBY'S CHEESEMONGERS LLC",-73.98764,40.71949,"120 Essex St","Stand 17","New York","NY","10002","3211","NEW YORK" 
"BYRNE DAIRY 01-FAIRGRO",-76.820488,42.14307,"1968 Grand Central Ave","","Horseheads","NY","14845","3071","CHEMUNG" 
"AAA GROCERY CORP",-73.799072,40.592602,"6919 Beach Channel Dr","","Arverne","NY","11692","1029","QUEENS" 
"148 FOOD PLAZA INC",-73.948952,40.828194,"3596 Broadway","","New York","NY","10031","3201","NEW YORK" 
"Grand Meat Corp/Key Food",-73.898148,40.724464,"6617 Grand Ave","","Maspeth","NY","11378","2540","QUEENS" 
"ASIAN FOOD MARKET OF STATEN ISLAND LLC",-74.189705,40.602283,"1801 South Ave","","Staten Island","NY","10314","3646","RICHMOND" 
"ALDI 70",-78.825577,42.731171,"5999 S Park Ave","","Hamburg","NY","14075","3719","ERIE" 
"W MEAT & GROCERY",-73.897751,40.941998,"195 Warburton Ave","","Yonkers","NY","10701","","WESTCHESTER" 
"GAGAN INC",-75.901466,43.972534,"610 State St","","Watertown","NY","13601","2839","JEFFERSON" 
"QQ POULTRY MARKET INC",-73.995468,40.646156,"874 39th St","","Brooklyn","NY","11232","3230","KINGS" 
"BROTHERS INTERNATIONAL FOOD INC",-73.960106,40.608528,"1663 E 13th St","Aka 1669 E 13 St.","Brooklyn","NY","11229","1101","KINGS" 
"CAMSENA MEAT CORP",-73.888428,40.868675,"277 E 198th St","","Bronx","NY","10458","3149","BRONX" 
"JAY AMBAY INC",-73.827118,40.752815,"4292 Main St","","Flushing","NY","11355","4723","QUEENS" 
"DOLLAR GENERAL 5730",-77.899048,43.100922,"7135 Buffalo Rd","","Churchville","NY","14428","9574","MONROE" 
"DOLLAR GENERAL 9897",-77.800301,43.218079,"5103 Ridge Rd W","","Spencerport","NY","14559","","MONROE" 
"Dollar General 10079",-77.50396,42.789574,"8557 Main St","","Honeoye","NY","14471","9637","ONTARIO" 
"KINNEY DRUGS 65",-76.82679,42.905247,"2085 US Route 20","","Seneca Falls","NY","13148","8740","SENECA" 
"FPL FOODS INC/C-TOWN",-74.009796,40.617939,"7907 13th Ave","","Brooklyn","NY","11228","2703","KINGS" 
"BED-ROSS GROCERY LLC",-73.962723,40.704159,"104 Ross St","","Brooklyn","NY","11249","7601","KINGS" 
"HONG CHENG INC",-73.981087,40.600822,"122 Avenue S","","Brooklyn","NY","11223","2533","KINGS" 
"LAFARGEVILLE MARKET",-75.968033,44.191216,"36111 State Route 180","","La Fargeville","NY","13656","2119","JEFFERSON" 
"GROCERY STORE",-73.944611,40.651089,"3501 CHURCH AVE","","BROOKLYN","NY","11203","","KINGS" 
"BEST YET MARKET OF OAKDALE INC",-73.119499,40.737293,"871 Montauk Hwy","","Oakdale","NY","11769","1712","SUFFOLK" 
"3RD AVENUE MINI MARKET I INC.",-74.026642,40.634354,"7024 3rd Ave","","Brooklyn","NY","11209","1307","KINGS" 
"DAILY  MART NEW YORK INC",-73.880577,40.756077,"8701 Northern Blvd","","Jackson Heights","NY","11372","1671","QUEENS" 
"JAMAMU GROCERY CORP",-73.938194,40.753597,"2416 40th AVE","","LONG ISLAND CITY","NY","11101","","QUEENS" 
"FIRST AVE DELI & GROCERY INC",-73.983566,40.729931,"196 1st Ave","","New York","NY","10009","4014","NEW YORK" 
"MEAL TICKET FOODS INC",-74.002525,40.618134,"7402 15th Ave","","Brooklyn","NY","11228","2219","KINGS" 
"MARIA PABLITO GROCERY CORP",-73.911118,40.841934,"1551 Sheridan Ave","Frnt 1","Bronx","NY","10457","8557","BRONX" 
"WATUSI MARKET",-76.164345,43.042309,"400 Seymour St","","Syracuse","NY","13204","3118","ONONDAGA" 
"Oceana Express Pharmacy Inc",-73.951225,40.59943,"2009 Avenue U","","Brooklyn","NY","11229","3907","KINGS" 
"DOLLAR TREE 3042",-73.496643,40.725697,"3767 Hempstead Tpke","","Levittown","NY","11756","1305","NASSAU" 
"DOLLAR TREE 3090",-73.62368,40.728855,"646 Stewart Ave","","Garden City","NY","11530","4708","NASSAU" 
"DOLLAR TREE 3092",-72.870018,40.800823,"800 Montauk Hwy","Ste 1","Shirley","NY","11967","2128","SUFFOLK" 
"Dollar Tree 3093",-73.31279,40.840565,"5014 Jericho Tpke","","Commack","NY","11725","2815","SUFFOLK" 
"USEF CONVENIENCE STORE CORP",-73.805542,40.674683,"13220 Rockaway Blvd","","South Ozone Park","NY","11420","2915","QUEENS" 
"WALGREENS 10157",-76.55024,42.945099,"150 Grant Ave","","Auburn","NY","13021","1502","CAYUGA" 
"Melissa Meat Market Corp",-73.890076,40.670078,"772 Sutter Ave","","Brooklyn","NY","11207","4321","KINGS" 
"UNIVERSAL MARKET",-78.83252,42.905186,"1266 Genesee St","","Buffalo","NY","14211","2242","ERIE" 
"GUADALUPANA MEXICANA GROCERY INC",-73.859192,40.692593,"86 30 85th St","","Woodhaven","NY","11421","1215","QUEENS" 
"NORTHSIDE DELI LLC",-78.180176,43.004223,"162 Bank St","","Batavia","NY","14020","2216","GENESEE" 
"QUEENS DOLLAR INC",-73.881645,40.828327,"1466 Westchester Ave","","Bronx","NY","10472","2902","BRONX" 
"DOLLAR MAGIC LLC",-73.93782,40.80389,"2050 Lexington Ave","","New York","NY","10035","1732","NEW YORK" 
"1029 FOOD PLAZA INC",-73.903435,40.854801,"122 E 181st St","","Bronx","NY","10453","3445","BRONX" 
"MimoMex Farm CSA",-74.008865,40.651451,"352 42nd St","","Brooklyn","NY","11232","3599","KINGS" 
"MALWA SECOND LIMITED - MILTS",-73.929512,41.702293,"57 Market St","","Poughkeepsie","NY","12601","3210","DUTCHESS" 
"FASTRAC MARKET 290",-78.813622,42.929607,"2751 Bailey Ave","","Buffalo","NY","14215","3255","ERIE" 
"D'AGOSTINO SUPERMARKETS INC 13-76",-73.960472,40.772911,"1074 Lexington Ave","","New York","NY","10021","2837","NEW YORK" 
"BROOKLYN GOURMET DELI CORP",-73.962112,40.713142,"313 Bedford Ave","","Brooklyn","NY","11211","5203","KINGS" 
"GREEN FAIR FRUITS AND VEGETABLES",-73.864426,40.871449,"765 Burke Ave","","Bronx","NY","10467","6611","BRONX" 
"DOLLAR TREE 3041",-73.276382,40.729645,"894 Sunrise Hwy","","Bay Shore","NY","11706","5908","SUFFOLK" 
"DOLLAR GENERAL 10301",-76.975739,42.523445,"16 Seneca St","","Dundee","NY","14837","1117","YATES" 
"DOLLAR GENERAL 8360",-78.698204,43.275848,"6181 McKee St","","Newfane","NY","14108","","NIAGARA" 
"RITE AID 4805",-73.816231,42.468349,"2463 US Route 9W","","Ravena","NY","12143","2610","ALBANY" 
"RITE AID 1912",-78.676888,43.21986,"3987 Lockport Olcott Rd","","Lockport","NY","14094","1132","NIAGARA" 
"Jaman Food Corp",-73.758377,40.706257,"19911 Hollis Ave","","Saint Albans","NY","11412","1231","QUEENS" 
"47 Pitt Grocery Inc",-73.983078,40.717293,"47 Pitt St","","New York","NY","10002","3519","NEW YORK" 
"S & J GROCERY INC",-73.989685,40.715755,"27 ESSEX ST","","NEW YORK","NY","10002","4655","NEW YORK" 
"GREEN POINT MARKET INC",-73.733604,40.712692,"22012 Hempstead Ave","","Queens Village","NY","11429","2119","QUEENS" 
"RITE AID 675",-78.754463,42.830238,"4018 Seneca St","","West Seneca","NY","14224","3413","ERIE" 
"RITE AID 646",-74.360725,43.013023,"147 N Comrie Ave","","Johnstown","NY","12095","1906","FULTON" 
"RITE AID 4672",-79.048492,42.63789,"9062 Erie Rd","","Angola","NY","14006","8824","ERIE" 
"RITE AID 884",-74.569984,42.910851,"9 E Grand St","","Palatine Bridge","NY","13428","","MONTGOMERY" 
"RITE AID 1193",-74.923241,42.26704,"1 Main St","Ste 6","Delhi","NY","13753","1106","DELAWARE" 
"MI TIERRA FOOD MARKET CORP",-73.40242,40.679592,"380 Oak St","","Copiague","NY","11726","3123","SUFFOLK" 
"1711 FOSTER CORPORATION",-73.960861,40.635178,"1711 Foster Ave","","Brooklyn","NY","11230","1809","KINGS" 
"WYCKOFF FARMHOUSE MARKET- FM",-73.921761,40.644909,"5816 Clarendon Rd","","Brooklyn","NY","11203","5444","KINGS" 
"Amor Bakery No 2 Inc",-73.900772,40.821896,"929 Prospect Ave","","Bronx","NY","10459","3931","BRONX" 
"TRONCOSO BROTHERS CORP",-73.904617,40.695881,"1686 George St","","Ridgewood","NY","11385","5343","QUEENS" 
"WALGREENS 09800",-75.258064,43.088257,"1750 Genesee St","Ste 1","Utica","NY","13502","5429","ONEIDA" 
"Kingston Farmers Market Foundation",-74.012756,41.9245,"WALL ST","","KINGSTON","NY","12401","","ULSTER" 
"RITE AID 609",-75.438118,43.23246,"1727 Black River Blvd N","","Rome","NY","13440","","ONEIDA" 
"APPLE FOOD & GROCERY INC",-74.359299,42.725163,"3611 STATE ROUTE 7","","CENTRAL BRIDGE","NY","12035","2801","SCHOHARIE" 
"APPLE FOOD & GROCERY INC",-74.394547,42.57048,"NY ROUTE 30","","MIDDLEBURGH","NY","12122","","SCHOHARIE" 
"DESI BAZAAR",-77.627136,43.104183,"1713 Crittenden Rd","","Rochester","NY","14623","1411","MONROE" 
"Seneca Food Mart Inc",-78.83419,42.870453,"1199 Seneca St","","Buffalo","NY","14210","1627","ERIE" 
"TARGET 2102",-73.201378,40.772789,"160 N Research Pl","","Central Islip","NY","11722","4458","SUFFOLK" 
"Target 2158",-76.873116,42.15424,"930 County Road 64","","Elmira","NY","14903","9704","CHEMUNG" 
"CARLITO'S DELI GROCERY",-73.953636,40.666313,"290 Rogers Ave","","Brooklyn","NY","11225","2740","KINGS" 
"DOWNTOWN BRONX DELI CORP",-73.916901,40.817818,"622 Melrose Ave","","Bronx","NY","10455","2627","BRONX" 
"ZACK MART",-78.891014,42.908905,"260 Rhode Island St","","Buffalo","NY","14213","2229","ERIE" 
"HP CITY FISH",-77.629417,43.151836,"626 W Main St","","Rochester","NY","14611","2314","MONROE" 
"SANTIAGO DELI CORP.",-73.887688,40.655712,"140 Wortman Ave","","Brooklyn","NY","11207","8426","KINGS" 
"A&N FOOD ENTERPRISES INC",-73.914299,40.805817,"250 Cypress Ave","","Bronx","NY","10454","1502","BRONX" 
"BROOK'S AVE FOOD ADVANTAGE CORP",-73.91938,40.80722,"228 Brook Ave","","Bronx","NY","10454","4107","BRONX" 
"GUEZ DELI GROCERY CORP",-73.900429,40.868103,"80 W KINGSBRIDGE RD","","BRONX","NY","10468","7594","BRONX" 
"M & B DELI GROCERY STORE CORP",-73.945419,40.828278,"1814 Amsterdam Ave","","New York","NY","10031","3520","NEW YORK" 
"Gold Coast Trading Corp",-73.926239,40.81522,"381 Canal Pl","","Bronx","NY","10451","5913","BRONX" 
"BSK Grocery Corp",-74.001991,40.642719,"4701 Eighth Ave","","Brooklyn","NY","11220","","KINGS" 
"NICE N EASY 3991",-76.078621,43.127953,"6392 E Taft Rd","","East Syracuse","NY","13057","8544","ONONDAGA" 
"1201 CHURCH AVE GROCERY CORP",-73.968285,40.647415,"1201 Church Ave","","Brooklyn","NY","11218","2905","KINGS" 
"KINNEY DRUG 79",-76.188141,43.101109,"437 Electronics Pkwy","","Liverpool","NY","13088","6001","ONONDAGA" 
"AAAS CORP",-73.916893,40.807644,"276 ST ANN'S AVE","","BRONX","NY","10454","","BRONX" 
"BEST BROOKLYN DELI INC",-73.99485,40.635986,"4924 New Utrecht Ave","","Brooklyn","NY","11219","3418","KINGS" 
"D'AGOSTINO SUPERMARKETS INC 15",-73.96994,40.789433,"633 Columbus Ave","","New York","NY","10024","1405","NEW YORK" 
"FIVE CORNER DELI CORP",-73.926804,40.774151,"2553 18th St","","Astoria","NY","11102","3552","QUEENS" 
"CAMELLIA FOODS",-78.837181,42.893402,"999 BROADWAY ST","Broadway Mkt Stand 49; 101-103","BUFFALO","NY","14212","","ERIE" 
"RITE AID 1019",-73.942245,41.120018,"133 Route 303","","Valley Cottage","NY","10989","5900","ROCKLAND" 
"AVENUE D GRILL & DELI CORP",-73.93367,40.641899,"4513 Avenue D","","Brooklyn","NY","11203","5735","KINGS" 
"Seneca Falls Farmers Market",-76.779243,42.918423,"Peoples Park","","Seneca Falls","NY","13148","","SENECA" 
"JS Church Farm Inc",-73.932487,40.651604,"4724 Church Ave","","Brooklyn","NY","11203","3210","KINGS" 
"UTICA FISH MARKET INC",-73.93103,40.670143,"246 Utica Ave","","Brooklyn","NY","11213","3931","KINGS" 
"WELL-BEING CORNER MARKET INC",-73.944313,40.71455,"344 Graham Ave","","Brooklyn","NY","11211","3709","KINGS" 
"QUISQUEYA GROCERY",-73.928207,40.706184,"120 GRATTAN ST","","BROOKLYN","NY","11237","","KINGS" 
"DOLLAR GENERAL 10405",-78.284508,42.869797,"11281 Alexander Rd","","Attica","NY","14011","9400","WYOMING" 
"DOLLAR GENERAL 10345",-73.521286,44.583515,"3073 Main St","","Peru","NY","12972","2904","CLINTON" 
"LORIGO'S MEATING PLACE, INC",-78.890488,42.918983,"185 Grant St","","Buffalo","NY","14213","1607","ERIE" 
"CLIFFORD FOOD MART INC",-77.580559,43.175663,"1547 Clifford Ave","","Rochester","NY","14609","3436","MONROE" 
"BANI GROCERY",-73.923653,40.693901,"1121 GREENE AVE","AKA 1121-1123 Greene Ave","BROOKLYN","NY","11221","","KINGS" 
"DIA DELI GROCERY CORP",-73.875298,40.839928,"1155 E Tremont Ave","","Bronx","NY","10460","2432","BRONX" 
